{"placemarks":[{"address":"Mozartstraße 13, 22083 Hamburg","coordinates":[10.02038,53.57755,0],"engineType":"CE","exterior":"GOOD","fuel":15,"interior":"GOOD","name":"HH-GO8588","vin":"WME4513341K560908"},{"address":"Lehmweg 27, 20144 Hamburg","coordinates":[9.97958,53.58171,0],"engineType":"CE","exterior":"GOOD","fuel":33,"interior":"GOOD","name":"HH-GO8480","vin":"WME4513341K412697"},{"address":"Harburger Chaussee 91 - 119, 20539 Hamburg (Umkreis 300m)","coordinates":[10.00445,53.52055,0],"engineType":"CE","exterior":"UNACCEPTABLE","fuel":100,"interior":"UNACCEPTABLE","name":"HH-GO8002","vin":"WME4513341K412713"},{"address":"Osterbrook 16, 20537 Hamburg","coordinates":[10.05728,53.55078,0],"engineType":"CE","exterior":"GOOD","fuel":69,"interior":"GOOD","name":"HH-GO8004","vin":"WME4513341K412727"},{"address":"Nordstrandweg 3, 22047 Hamburg","coordinates":[10.10683,53.58976,0],"engineType":"CE","exterior":"GOOD","fuel":45,"interior":"GOOD","name":"HH-GO8005","vin":"WME4513341K412733"},{"address":"Lincolnstraße 18, 20359 Hamburg","coordinates":[9.95718,53.54859,0],"engineType":"CE","exterior":"UNACCEPTABLE","fuel":75,"interior":"UNACCEPTABLE","name":"HH-GO8487","vin":"WME4513341K412755"},{"address":"Alter Güterbahnhof, 22303 Hamburg","coordinates":[10.03438,53.59577,0],"engineType":"CE","exterior":"GOOD","fuel":100,"interior":"GOOD","name":"HH-GO8010","vin":"WME4513341K413536"},{"address":"Baron-Voght-Straße 4, 22609 Hamburg","coordinates":[9.86467,53.54872,0],"engineType":"CE","exterior":"UNACCEPTABLE","fuel":57,"interior":"UNACCEPTABLE","name":"HH-GO8013","vin":"WME4513341K413048"},{"address":"Helmholtzstraße 7, 22765 Hamburg","coordinates":[9.92244,53.5575,0],"engineType":"CE","exterior":"GOOD","fuel":96,"interior":"GOOD","name":"HH-GO8014","vin":"WME4513341K414254"},{"address":"Grossheidestraße 49, 22303 Hamburg","coordinates":[10.02227,53.58861,0],"engineType":"CE","exterior":"UNACCEPTABLE","fuel":54,"interior":"UNACCEPTABLE","name":"HH-GO8015","vin":"WME4513341K413547"},{"address":"Garstedter Weg 19, 22453 Hamburg","coordinates":[9.95511,53.62432,0],"engineType":"CE","exterior":"GOOD","fuel":48,"interior":"GOOD","name":"HH-GO8551","vin":"WME4513341K413052"},{"address":"Borchertring 40, 22309 Hamburg","coordinates":[10.06356,53.61789,0],"engineType":"CE","exterior":"GOOD","fuel":100,"interior":"GOOD","name":"HH-GO8599","vin":"WME4513341K413056"},{"address":"Saarlandstraße 71, 22303 Hamburg","coordinates":[10.03118,53.5966,0],"engineType":"CE","exterior":"UNACCEPTABLE","fuel":51,"interior":"GOOD","name":"HH-GO8022","vin":"WME4513341K413576"},{"address":"Forbacher Straße 9, 22049 Hamburg","coordinates":[10.05971,53.58179,0],"engineType":"CE","exterior":"GOOD","fuel":100,"interior":"GOOD","name":"HH-GO8024","vin":"WME4513341K413090"},{"address":"Lohbrügger Weg 2, 21031 Hamburg","coordinates":[10.20343,53.49827,0],"engineType":"CE","exterior":"GOOD","fuel":81,"interior":"UNACCEPTABLE","name":"HH-GO8026","vin":"WME4513341K414308"},{"address":"Nedderfeld 76, 22529 Hamburg","coordinates":[9.97565,53.60157,0],"engineType":"CE","exterior":"GOOD","fuel":48,"interior":"GOOD","name":"HH-GO8027","vin":"WME4513341K413105"},{"address":"Grosse Elbstraße 64, 22767 Hamburg","coordinates":[9.94911,53.54462,0],"engineType":"CE","exterior":"GOOD","fuel":90,"interior":"UNACCEPTABLE","name":"HH-GO8030","vin":"WME4513341K413124"},{"address":"Abendrothsweg 22, 20251 Hamburg","coordinates":[9.97916,53.5856,0],"engineType":"CE","exterior":"GOOD","fuel":100,"interior":"UNACCEPTABLE","name":"HH-GO8597","vin":"WME4513341K413614"},{"address":"Brennerstraße 15, 20099 Hamburg","coordinates":[10.01449,53.55532,0],"engineType":"CE","exterior":"UNACCEPTABLE","fuel":100,"interior":"UNACCEPTABLE","name":"HH-GO8035","vin":"WME4513341K414387"},{"address":"Bülowstieg 4, 22763 Hamburg","coordinates":[9.91533,53.55274,0],"engineType":"CE","exterior":"GOOD","fuel":63,"interior":"GOOD","name":"HH-GO8038","vin":"WME4513341K413147"},{"address":"Wohlers Allee 36, 22767 Hamburg","coordinates":[9.95491,53.55915,0],"engineType":"CE","exterior":"GOOD","fuel":66,"interior":"GOOD","name":"HH-GO8040","vin":"WME4513341K413151"},{"address":"Gazertstraße 58, 21073 Hamburg","coordinates":[9.96736,53.45957,0],"engineType":"CE","exterior":"GOOD","fuel":66,"interior":"GOOD","name":"HH-GO8042","vin":"WME4513341K413156"},{"address":"Viereck 23, 22607 Hamburg","coordinates":[9.87046,53.57066,0],"engineType":"CE","exterior":"GOOD","fuel":39,"interior":"GOOD","name":"HH-GO8043","vin":"WME4513341K414458"},{"address":"Arno-Schmidt-Platz, 20097 Hamburg","coordinates":[10.00772,53.55034,0],"engineType":"CE","exterior":"GOOD","fuel":54,"interior":"UNACCEPTABLE","name":"HH-GO8316","vin":"WME4513341K413176"},{"address":"Clematisweg 6, 22529 Hamburg","coordinates":[9.95807,53.58798,0],"engineType":"CE","exterior":"GOOD","fuel":60,"interior":"GOOD","name":"HH-GO8046","vin":"WME4513341K413183"},{"address":"Helbingstraße 5, 22047 Hamburg","coordinates":[10.08843,53.58441,0],"engineType":"CE","exterior":"GOOD","fuel":39,"interior":"GOOD","name":"HH-GO8047","vin":"WME4513341K413635"},{"address":"Schnackenburgallee 58, 22525 Hamburg","coordinates":[9.91917,53.58114,0],"engineType":"CE","exterior":"GOOD","fuel":100,"interior":"GOOD","name":"HH-GO8050","vin":"WME4513341K413194"},{"address":"Meister-Francke-Straße 11, 22309 Hamburg","coordinates":[10.04433,53.6044,0],"engineType":"CE","exterior":"GOOD","fuel":48,"interior":"GOOD","name":"HH-GO8052","vin":"WME4513341K413650"},{"address":"Glacischaussee 2, 20359 Hamburg","coordinates":[9.97041,53.55121,0],"engineType":"CE","exterior":"GOOD","fuel":18,"interior":"GOOD","name":"HH-GO8053","vin":"WME4513341K414479"},{"address":"Beerboomstücken 16, 22453 Hamburg","coordinates":[9.97651,53.61157,0],"engineType":"CE","exterior":"GOOD","fuel":90,"interior":"GOOD","name":"HH-GO8055","vin":"WME4513341K413659"},{"address":"Stoltenstraße 26, 22119 Hamburg","coordinates":[10.09488,53.56302,0],"engineType":"CE","exterior":"GOOD","fuel":42,"interior":"GOOD","name":"HH-GO8056","vin":"WME4513341K414485"},{"address":"Vogelweide 32, 22081 Hamburg","coordinates":[10.0417,53.5779,0],"engineType":"CE","exterior":"UNACCEPTABLE","fuel":100,"interior":"UNACCEPTABLE","name":"HH-GO8057","vin":"WME4513341K413222"},{"address":"Emil-Janssen-Straße 29, 22307 Hamburg","coordinates":[10.03995,53.59493,0],"engineType":"CE","exterior":"GOOD","fuel":66,"interior":"GOOD","name":"HH-GO8058","vin":"WME4513341K413699"},{"address":"Alfredstraße 58, 20535 Hamburg","coordinates":[10.03359,53.55595,0],"engineType":"CE","exterior":"GOOD","fuel":100,"interior":"GOOD","name":"HH-GO8592","vin":"WME4513341K413227"},{"address":"Kamerbalken 16, 22525 Hamburg","coordinates":[9.92473,53.59338,0],"engineType":"CE","exterior":"GOOD","fuel":69,"interior":"GOOD","name":"HH-GO8062","vin":"WME4513341K414499"},{"address":"Barmbeker Straße 36, 22303 Hamburg","coordinates":[10.01785,53.58631,0],"engineType":"CE","exterior":"GOOD","fuel":36,"interior":"GOOD","name":"HH-GO8064","vin":"WME4513341K414505"},{"address":"Woltersstraße 5, 22453 Hamburg","coordinates":[9.98044,53.60672,0],"engineType":"CE","exterior":"GOOD","fuel":60,"interior":"GOOD","name":"HH-GO8069","vin":"WME4513341K413265"},{"address":"Försterweg 22, 22525 Hamburg","coordinates":[9.9324,53.57845,0],"engineType":"CE","exterior":"UNACCEPTABLE","fuel":45,"interior":"UNACCEPTABLE","name":"HH-GO8071","vin":"WME4513341K414519"},{"address":"Hagenbeckstraße 11, 22527 Hamburg","coordinates":[9.94683,53.5838,0],"engineType":"CE","exterior":"GOOD","fuel":100,"interior":"GOOD","name":"HH-GO8075","vin":"WME4513341K413762"},{"address":"Horner Weg 168, 22111 Hamburg","coordinates":[10.07113,53.55502,0],"engineType":"CE","exterior":"GOOD","fuel":87,"interior":"GOOD","name":"HH-GO8076","vin":"WME4513341K414544"},{"address":"Gustav-Seitz-Weg 2, 22309 Hamburg","coordinates":[10.06221,53.60965,0],"engineType":"CE","exterior":"GOOD","fuel":27,"interior":"GOOD","name":"HH-GO8080","vin":"WME4513341K414566"},{"address":"Höperfeld 18, 21033 Hamburg","coordinates":[10.20325,53.49519,0],"engineType":"CE","exterior":"UNACCEPTABLE","fuel":33,"interior":"UNACCEPTABLE","name":"HH-GO8081","vin":"WME4513341K413782"},{"address":"Parkhaus Marie-Jonas-Platz,Parkdeck 3,","coordinates":[9.98525,53.59034,0],"engineType":"CE","exterior":"UNACCEPTABLE","fuel":78,"interior":"UNACCEPTABLE","name":"HH-GO8083","vin":"WME4513341K413787"},{"address":"Dag-Hammarskjöld-Platz 2, 20354 Hamburg (Umkreis 300m)","coordinates":[9.98876,53.56074,0],"engineType":"CE","exterior":"GOOD","fuel":100,"interior":"UNACCEPTABLE","name":"HH-GO8085","vin":"WME4513341K413325"},{"address":"Rathausstraße 4, 20095 Hamburg","coordinates":[9.99429,53.54999,0],"engineType":"CE","exterior":"UNACCEPTABLE","fuel":90,"interior":"UNACCEPTABLE","name":"HH-GO8088","vin":"WME4513341K414592"},{"address":"Bömelburgweg 18 - 28, 22111 Hamburg (Umkreis 100m)","coordinates":[10.0875,53.54899,0],"engineType":"CE","exterior":"GOOD","fuel":100,"interior":"GOOD","name":"HH-GO8090","vin":"WME4513341K414604"},{"address":"Humboldtstraße 99, 22083 Hamburg","coordinates":[10.02146,53.57736,0],"engineType":"CE","exterior":"UNACCEPTABLE","fuel":100,"interior":"UNACCEPTABLE","name":"HH-GO8094","vin":"WME4513341K413369"},{"address":"Köppenstraße 6, 22453 Hamburg","coordinates":[9.97898,53.60756,0],"engineType":"CE","exterior":"UNACCEPTABLE","fuel":96,"interior":"UNACCEPTABLE","name":"HH-GO8095","vin":"WME4513341K414630"},{"address":"Hauffstraße 5, 22085 Hamburg","coordinates":[10.01801,53.58067,0],"engineType":"CE","exterior":"GOOD","fuel":90,"interior":"UNACCEPTABLE","name":"HH-GO8097","vin":"WME4513341K413852"},{"address":"Adickesstraße 17, 22607 Hamburg","coordinates":[9.89289,53.56103,0],"engineType":"CE","exterior":"GOOD","fuel":60,"interior":"GOOD","name":"HH-GO8099","vin":"WME4513341K413388"},{"address":"Jenfelder Allee 75, 22045 Hamburg","coordinates":[10.12585,53.58356,0],"engineType":"CE","exterior":"UNACCEPTABLE","fuel":66,"interior":"UNACCEPTABLE","name":"HH-GO8103","vin":"WME4513341K413860"},{"address":"Blumenau 113, 22089 Hamburg","coordinates":[10.03993,53.56913,0],"engineType":"CE","exterior":"GOOD","fuel":27,"interior":"GOOD","name":"HH-GO8104","vin":"WME4513341K414660"},{"address":"Krochmannstraße 5, 22299 Hamburg","coordinates":[10.00208,53.59707,0],"engineType":"CE","exterior":"GOOD","fuel":45,"interior":"GOOD","name":"HH-GO8106","vin":"WME4513341K413871"},{"address":"Frahmredder 54, 22393 Hamburg","coordinates":[10.10067,53.64757,0],"engineType":"CE","exterior":"GOOD","fuel":54,"interior":"GOOD","name":"HH-GO8481","vin":"WME4513341K414665"},{"address":"Bäckerbreitergang 73, 20355 Hamburg","coordinates":[9.98188,53.55336,0],"engineType":"CE","exterior":"GOOD","fuel":51,"interior":"GOOD","name":"HH-GO8111","vin":"WME4513341K414672"},{"address":"Hohe Straße 88, 21073 Hamburg","coordinates":[9.97359,53.45158,0],"engineType":"CE","exterior":"UNACCEPTABLE","fuel":51,"interior":"UNACCEPTABLE","name":"HH-GO8116","vin":"WME4513341K413944"},{"address":"Bramfelder Chaussee 38, 22177 Hamburg","coordinates":[10.06165,53.59544,0],"engineType":"CE","exterior":"GOOD","fuel":100,"interior":"GOOD","name":"HH-GO8124","vin":"WME4513341K413510"},{"address":"Lutterothstraße 95, 20255 Hamburg","coordinates":[9.94242,53.58177,0],"engineType":"CE","exterior":"GOOD","fuel":90,"interior":"GOOD","name":"HH-GO8125","vin":"WME4513341K414757"},{"address":"Rothenbaumchaussee 2, 20148 Hamburg","coordinates":[9.98973,53.56234,0],"engineType":"CE","exterior":"GOOD","fuel":63,"interior":"GOOD","name":"HH-GO8484","vin":"WME4513341K413518"},{"address":"Hemmingstedter Weg 45, 22609 Hamburg","coordinates":[9.86458,53.56552,0],"engineType":"CE","exterior":"GOOD","fuel":69,"interior":"GOOD","name":"HH-GO8130","vin":"WME4513341K414025"},{"address":"Warnstedtstraße 24, 22525 Hamburg","coordinates":[9.9303,53.58427,0],"engineType":"CE","exterior":"GOOD","fuel":60,"interior":"GOOD","name":"HH-GO8133","vin":"WME4513341K414784"},{"address":"Willistraße 32, 22299 Hamburg","coordinates":[10.00061,53.58845,0],"engineType":"CE","exterior":"GOOD","fuel":66,"interior":"UNACCEPTABLE","name":"HH-GO8135","vin":"WME4513341K414141"},{"address":"Stresemannstraße 270, 22769 Hamburg","coordinates":[9.93631,53.56367,0],"engineType":"CE","exterior":"UNACCEPTABLE","fuel":42,"interior":"GOOD","name":"HH-GO8136","vin":"WME4513341K414893"},{"address":"Baererstraße 85, 21073 Hamburg","coordinates":[9.97346,53.4554,0],"engineType":"CE","exterior":"GOOD","fuel":96,"interior":"GOOD","name":"HH-GO8138","vin":"WME4513341K414845"},{"address":"Brunsstraße 14, 21073 Hamburg","coordinates":[9.97896,53.4552,0],"engineType":"CE","exterior":"UNACCEPTABLE","fuel":69,"interior":"UNACCEPTABLE","name":"HH-GO8549","vin":"WME4513341K414165"},{"address":"Quarree 8 - 22, 22041 Hamburg (Umkreis 300m)","coordinates":[10.06585,53.57379,0],"engineType":"CE","exterior":"GOOD","fuel":39,"interior":"UNACCEPTABLE","name":"HH-GO8140","vin":"WME4513341K414172"},{"address":"Parkhaus Am Hauptbahnhof, Parkdeck 5","coordinates":[10.00964,53.55471,0],"engineType":"CE","exterior":"GOOD","fuel":100,"interior":"GOOD","name":"HH-GO8141","vin":"WME4513341K414851"},{"address":"Kippingstraße 38, 20144 Hamburg","coordinates":[9.97174,53.56994,0],"engineType":"CE","exterior":"GOOD","fuel":100,"interior":"GOOD","name":"HH-GO8144","vin":"WME4513341K414862"},{"address":"Norderstraße 163, 20097 Hamburg","coordinates":[10.0184,53.55083,0],"engineType":"CE","exterior":"UNACCEPTABLE","fuel":100,"interior":"UNACCEPTABLE","name":"HH-GO8149","vin":"WME4513341K414881"},{"address":"Hartwig-Hesse-Straße 23, 20257 Hamburg","coordinates":[9.94367,53.58107,0],"engineType":"CE","exterior":"GOOD","fuel":100,"interior":"GOOD","name":"HH-GO8150","vin":"WME4513341K414909"},{"address":"Valentinskamp 28 - 47, 20355 Hamburg (Umkreis 100m)","coordinates":[9.98296,53.55599,0],"engineType":"CE","exterior":"GOOD","fuel":36,"interior":"GOOD","name":"HH-GO8152","vin":"WME4513341K414887"},{"address":"Jaguarstieg 8, 22527 Hamburg","coordinates":[9.94039,53.58268,0],"engineType":"CE","exterior":"UNACCEPTABLE","fuel":69,"interior":"GOOD","name":"HH-GO8153","vin":"WME4513341K414209"},{"address":"Parkhaus Bleichenhof, Parkdeck R","coordinates":[9.98673,53.55201,0],"engineType":"CE","exterior":"GOOD","fuel":69,"interior":"UNACCEPTABLE","name":"HH-GO8154","vin":"WME4513341K414921"},{"address":"Helmsweg 39, 21073 Hamburg","coordinates":[9.9746,53.46515,0],"engineType":"CE","exterior":"GOOD","fuel":100,"interior":"GOOD","name":"HH-GO8155","vin":"WME4513341K414928"},{"address":"Sierichstraße 5, 22301 Hamburg","coordinates":[10.0093,53.57851,0],"engineType":"CE","exterior":"GOOD","fuel":75,"interior":"GOOD","name":"HH-GO8159","vin":"WME4513341K414946"},{"address":"Walddörferstraße 362, 22047 Hamburg","coordinates":[10.10138,53.58516,0],"engineType":"CE","exterior":"GOOD","fuel":84,"interior":"GOOD","name":"HH-GO8160","vin":"WME4513341K414952"},{"address":"Lämmersieth 17, 22305 Hamburg","coordinates":[10.05099,53.58414,0],"engineType":"CE","exterior":"GOOD","fuel":100,"interior":"GOOD","name":"HH-GO8162","vin":"WME4513341K414961"},{"address":"Niendorfer Kirchenweg 23, 22459 Hamburg","coordinates":[9.94916,53.62101,0],"engineType":"CE","exterior":"UNACCEPTABLE","fuel":100,"interior":"UNACCEPTABLE","name":"HH-GO8164","vin":"WME4513341K414968"},{"address":"Heinrich-Hertz-Straße 73, 22085 Hamburg","coordinates":[10.02202,53.57273,0],"engineType":"CE","exterior":"GOOD","fuel":81,"interior":"UNACCEPTABLE","name":"HH-GO8165","vin":"WME4513341K417757"},{"address":"Eilbeker Weg 51, 22089 Hamburg","coordinates":[10.04418,53.56895,0],"engineType":"CE","exterior":"GOOD","fuel":18,"interior":"GOOD","name":"HH-GO8167","vin":"WME4513341K414986"},{"address":"Maria-Louisen-Straße 46, 22301 Hamburg","coordinates":[9.99998,53.58541,0],"engineType":"CE","exterior":"GOOD","fuel":96,"interior":"GOOD","name":"HH-GO8168","vin":"WME4513341K417815"},{"address":"Am Husarendenkmal 28, 22043 Hamburg","coordinates":[10.0771,53.56446,0],"engineType":"CE","exterior":"GOOD","fuel":78,"interior":"GOOD","name":"HH-GO8169","vin":"WME4513341K414992"},{"address":"Lamprechtstraße 19, 21029 Hamburg","coordinates":[10.22115,53.48802,0],"engineType":"CE","exterior":"GOOD","fuel":66,"interior":"GOOD","name":"HH-GO8170","vin":"WME4513341K414997"},{"address":"Schrammsweg 27 - 37, 20249 Hamburg (Umkreis 100m)","coordinates":[9.99153,53.59079,0],"engineType":"CE","exterior":"GOOD","fuel":51,"interior":"GOOD","name":"HH-GO8171","vin":"WME4513341K415417"},{"address":"Stoltenstraße 28, 22119 Hamburg","coordinates":[10.09504,53.56269,0],"engineType":"CE","exterior":"GOOD","fuel":100,"interior":"GOOD","name":"HH-GO8172","vin":"WME4513341K415005"},{"address":"Weimarer Straße 77, 21107 Hamburg","coordinates":[9.98785,53.50772,0],"engineType":"CE","exterior":"UNACCEPTABLE","fuel":51,"interior":"UNACCEPTABLE","name":"HH-GO8175","vin":"WME4513341K415025"},{"address":"switchh - Berliner Tor","coordinates":[10.02377,53.55328,0],"engineType":"CE","exterior":"GOOD","fuel":100,"interior":"GOOD","name":"HH-GO8180","vin":"WME4513341K415097"},{"address":"Steinschanze 2, 20457 Hamburg","coordinates":[10.00357,53.543,0],"engineType":"CE","exterior":"GOOD","fuel":48,"interior":"GOOD","name":"HH-GO8181","vin":"WME4513341K415106"},{"address":"Elbchaussee 166, 22605 Hamburg","coordinates":[9.91064,53.54609,0],"engineType":"CE","exterior":"GOOD","fuel":39,"interior":"GOOD","name":"HH-GO8183","vin":"WME4513341K415112"},{"address":"Wunderbrunnen 2, 22457 Hamburg (Umkreis 300m)","coordinates":[9.92972,53.64904,0],"engineType":"CE","exterior":"GOOD","fuel":51,"interior":"UNACCEPTABLE","name":"HH-GO8189","vin":"WME4513341K415141"},{"address":"Haynstraße 5, 20249 Hamburg","coordinates":[9.98555,53.58566,0],"engineType":"CE","exterior":"GOOD","fuel":84,"interior":"GOOD","name":"HH-GO8190","vin":"WME4513341K415443"},{"address":"Weusthoffstraße 33, 21075 Hamburg","coordinates":[9.95497,53.45652,0],"engineType":"CE","exterior":"GOOD","fuel":100,"interior":"GOOD","name":"HH-GO8191","vin":"WME4513341K415148"},{"address":"Alsterdorfer Straße 511, 22337 Hamburg","coordinates":[10.0273,53.61764,0],"engineType":"CE","exterior":"GOOD","fuel":63,"interior":"GOOD","name":"HH-GO8477","vin":"WME4513341K416375"},{"address":"switchh - Berliner Tor","coordinates":[10.02377,53.55328,0],"engineType":"CE","exterior":"GOOD","fuel":51,"interior":"GOOD","name":"HH-GO8200","vin":"WME4513341K415465"},{"address":"Hastedtplatz 9, 21073 Hamburg","coordinates":[9.97563,53.45604,0],"engineType":"CE","exterior":"GOOD","fuel":54,"interior":"GOOD","name":"HH-GO8201","vin":"WME4513341K417947"},{"address":"Saseler Chaussee 88, 22391 Hamburg","coordinates":[10.09884,53.64308,0],"engineType":"CE","exterior":"GOOD","fuel":66,"interior":"UNACCEPTABLE","name":"HH-GO8202","vin":"WME4513341K415185"},{"address":"Kirchenallee 26, 20099 Hamburg","coordinates":[10.00756,53.5557,0],"engineType":"CE","exterior":"GOOD","fuel":33,"interior":"GOOD","name":"HH-GO8203","vin":"WME4513341K415196"},{"address":"Garstedter Weg 13, 22453 Hamburg","coordinates":[9.95449,53.62189,0],"engineType":"CE","exterior":"GOOD","fuel":100,"interior":"GOOD","name":"HH-GO8204","vin":"WME4513341K415204"},{"address":"Neumühlen 3, 22763 Hamburg","coordinates":[9.92226,53.54454,0],"engineType":"CE","exterior":"GOOD","fuel":100,"interior":"GOOD","name":"HH-GO8205","vin":"WME4513341K415212"},{"address":"Dammtorwall 11, 20354 Hamburg","coordinates":[9.98459,53.55716,0],"engineType":"CE","exterior":"GOOD","fuel":78,"interior":"GOOD","name":"HH-GO8206","vin":"WME4513341K415228"},{"address":"Stormarnhöhe 5, 21031 Hamburg","coordinates":[10.209,53.50093,0],"engineType":"CE","exterior":"UNACCEPTABLE","fuel":100,"interior":"UNACCEPTABLE","name":"HH-GO8209","vin":"WME4513341K415487"},{"address":"Orchideenring 1 - 16, 22607 Hamburg (Umkreis 100m)","coordinates":[9.86695,53.57198,0],"engineType":"CE","exterior":"UNACCEPTABLE","fuel":21,"interior":"UNACCEPTABLE","name":"HH-GO8486","vin":"WME4513341K415329"},{"address":"Tiergartenstraße 2, 20355 Hamburg (Umkreis 300m)","coordinates":[9.98307,53.56375,0],"engineType":"CE","exterior":"UNACCEPTABLE","fuel":81,"interior":"UNACCEPTABLE","name":"HH-GO8211","vin":"WME4513341K415493"},{"address":"Friedrich-Ebert-Damm 118 - 120, 22047 Hamburg (Umkreis 100m)","coordinates":[10.09371,53.58812,0],"engineType":"CE","exterior":"GOOD","fuel":63,"interior":"GOOD","name":"HH-GO8213","vin":"WME4513341K415498"},{"address":"Horner Weg 218, 22111 Hamburg","coordinates":[10.07772,53.55479,0],"engineType":"CE","exterior":"GOOD","fuel":100,"interior":"GOOD","name":"HH-GO8217","vin":"WME4513341K415345"},{"address":"Grosse Bahnstraße 24, 22525 Hamburg","coordinates":[9.9372,53.57444,0],"engineType":"CE","exterior":"GOOD","fuel":75,"interior":"GOOD","name":"HH-GO8218","vin":"WME4513341K415539"},{"address":"Otto-Brenner-Straße 30, 21109 Hamburg","coordinates":[10.01877,53.48689,0],"engineType":"CE","exterior":"UNACCEPTABLE","fuel":100,"interior":"GOOD","name":"HH-GO8221","vin":"WME4513341K416350"},{"address":"Haakestraße 38, 21075 Hamburg","coordinates":[9.96316,53.46303,0],"engineType":"CE","exterior":"GOOD","fuel":100,"interior":"GOOD","name":"HH-GO8222","vin":"WME4513341K415572"},{"address":"Grundstraße 27, 20257 Hamburg","coordinates":[9.94163,53.5763,0],"engineType":"CE","exterior":"UNACCEPTABLE","fuel":30,"interior":"UNACCEPTABLE","name":"HH-GO8223","vin":"WME4513341K415365"},{"address":"Harburger Chaussee 79, 20539 Hamburg","coordinates":[10.00723,53.52071,0],"engineType":"CE","exterior":"GOOD","fuel":48,"interior":"GOOD","name":"HH-GO8225","vin":"WME4513341K415589"},{"address":"Faberstraße 24, 20257 Hamburg","coordinates":[9.94445,53.57487,0],"engineType":"CE","exterior":"GOOD","fuel":39,"interior":"GOOD","name":"HH-GO8226","vin":"WME4513341K415374"},{"address":"Brandsende 7, 20095 Hamburg","coordinates":[10.00203,53.55386,0],"engineType":"CE","exterior":"GOOD","fuel":100,"interior":"GOOD","name":"HH-GO8227","vin":"WME4513341K416335"},{"address":"Hansehof","coordinates":[10.12173,53.57905,0],"engineType":"CE","exterior":"GOOD","fuel":100,"interior":"GOOD","name":"HH-GO8228","vin":"WME4513341K415597"},{"address":"Finkenau 31, 22081 Hamburg","coordinates":[10.03236,53.56923,0],"engineType":"CE","exterior":"UNACCEPTABLE","fuel":75,"interior":"UNACCEPTABLE","name":"HH-GO8229","vin":"WME4513341K415381"},{"address":"Drehbahn 36, 20354 Hamburg","coordinates":[9.98483,53.55654,0],"engineType":"CE","exterior":"GOOD","fuel":90,"interior":"GOOD","name":"HH-GO8230","vin":"WME4513341K416327"},{"address":"Thadenstraße 125, 22767 Hamburg","coordinates":[9.95595,53.55711,0],"engineType":"CE","exterior":"UNACCEPTABLE","fuel":100,"interior":"UNACCEPTABLE","name":"HH-GO8232","vin":"WME4513341K416319"},{"address":"Silcherstraße 5, 22761 Hamburg","coordinates":[9.90247,53.56565,0],"engineType":"CE","exterior":"UNACCEPTABLE","fuel":100,"interior":"UNACCEPTABLE","name":"HH-GO8482","vin":"WME4513341K415389"},{"address":"Ludwig-Richter-Straße 3, 22607 Hamburg","coordinates":[9.89694,53.56508,0],"engineType":"CE","exterior":"GOOD","fuel":45,"interior":"GOOD","name":"HH-GO8235","vin":"WME4513341K416315"},{"address":"Starstraße 21, 22305 Hamburg","coordinates":[10.04884,53.58909,0],"engineType":"CE","exterior":"UNACCEPTABLE","fuel":54,"interior":"UNACCEPTABLE","name":"HH-GO8237","vin":"WME4513341K415396"},{"address":"Hohe Bleichen 5, 20354 Hamburg","coordinates":[9.98685,53.55255,0],"engineType":"CE","exterior":"UNACCEPTABLE","fuel":78,"interior":"UNACCEPTABLE","name":"HH-GO8238","vin":"WME4513341K415624"},{"address":"Überseering 33, 22297 Hamburg","coordinates":[10.02332,53.6068,0],"engineType":"CE","exterior":"GOOD","fuel":48,"interior":"UNACCEPTABLE","name":"HH-GO8239","vin":"WME4513341K416309"},{"address":"Parkhaus Bleichenhof, Parkdeck R","coordinates":[9.98673,53.55201,0],"engineType":"CE","exterior":"GOOD","fuel":30,"interior":"GOOD","name":"HH-GO8240","vin":"WME4513341K415404"},{"address":"Theodor-Heuss-Platz 7, 20146 Hamburg","coordinates":[9.98949,53.56132,0],"engineType":"CE","exterior":"GOOD","fuel":42,"interior":"GOOD","name":"HH-GO8241","vin":"WME4513341K415631"},{"address":"Grumbrechtstraße 120, 21075 Hamburg","coordinates":[9.95128,53.46862,0],"engineType":"CE","exterior":"GOOD","fuel":100,"interior":"GOOD","name":"HH-GO8242","vin":"WME4513341K416303"},{"address":"Faberstraße 17, 20257 Hamburg","coordinates":[9.94433,53.5748,0],"engineType":"CE","exterior":"GOOD","fuel":81,"interior":"GOOD","name":"HH-GO8474","vin":"WME4513341K415651"},{"address":"Hirschgraben 42, 22089 Hamburg","coordinates":[10.04272,53.56433,0],"engineType":"CE","exterior":"GOOD","fuel":81,"interior":"GOOD","name":"HH-GO8246","vin":"WME4513341K416284"},{"address":"Schurzallee-Nord 8 - 12, 20537 Hamburg (Umkreis 100m)","coordinates":[10.06749,53.55258,0],"engineType":"CE","exterior":"GOOD","fuel":96,"interior":"GOOD","name":"HH-GO8473","vin":"WME4513341K415657"},{"address":"Berkefeldweg 7, 21075 Hamburg","coordinates":[9.95327,53.46935,0],"engineType":"CE","exterior":"GOOD","fuel":100,"interior":"GOOD","name":"HH-GO8248","vin":"WME4513341K416279"},{"address":"Fuhlsbüttler Straße 761 - 781, 22337 Hamburg (Umkreis 100m)","coordinates":[10.03296,53.62246,0],"engineType":"CE","exterior":"GOOD","fuel":33,"interior":"GOOD","name":"HH-GO8598","vin":"WME4513341K416260"},{"address":"Eitzensweg 2, 20537 Hamburg","coordinates":[10.06358,53.55219,0],"engineType":"CE","exterior":"UNACCEPTABLE","fuel":45,"interior":"UNACCEPTABLE","name":"HH-GO8250","vin":"WME4513341K416356"},{"address":"Detmerstraße 9, 22305 Hamburg","coordinates":[10.04244,53.59084,0],"engineType":"CE","exterior":"GOOD","fuel":100,"interior":"GOOD","name":"HH-GO8255","vin":"WME4513341K415707"},{"address":"Parkhaus Bleichenhof, Parkdeck R","coordinates":[9.98673,53.55201,0],"engineType":"CE","exterior":"GOOD","fuel":90,"interior":"GOOD","name":"HH-GO8256","vin":"WME4513341K416248"},{"address":"Parkhaus Bleichenhof, Parkdeck R","coordinates":[9.98673,53.55201,0],"engineType":"CE","exterior":"GOOD","fuel":54,"interior":"UNACCEPTABLE","name":"HH-GO8258","vin":"WME4513341K415718"},{"address":"Grundstraße 30, 20257 Hamburg","coordinates":[9.94121,53.57618,0],"engineType":"CE","exterior":"UNACCEPTABLE","fuel":27,"interior":"UNACCEPTABLE","name":"HH-GO8259","vin":"WME4513341K416243"},{"address":"Rauchstraße 1, 22043 Hamburg","coordinates":[10.08404,53.57021,0],"engineType":"CE","exterior":"GOOD","fuel":100,"interior":"GOOD","name":"HH-GO8315","vin":"WME4513341K415881"},{"address":"Witthof 9, 22305 Hamburg","coordinates":[10.03899,53.58657,0],"engineType":"CE","exterior":"UNACCEPTABLE","fuel":48,"interior":"UNACCEPTABLE","name":"HH-GO8554","vin":"WME4513341K415874"},{"address":"Bömelburgweg 14, 22111 Hamburg","coordinates":[10.08709,53.54935,0],"engineType":"CE","exterior":"UNACCEPTABLE","fuel":54,"interior":"GOOD","name":"HH-GO8269","vin":"WME4513341K415751"},{"address":"Genslerstraße 38, 22307 Hamburg","coordinates":[10.03848,53.59292,0],"engineType":"CE","exterior":"GOOD","fuel":81,"interior":"GOOD","name":"HH-GO8275","vin":"WME4513341K415776"},{"address":"Mexikoring 22, 22297 Hamburg","coordinates":[10.02366,53.60365,0],"engineType":"CE","exterior":"GOOD","fuel":54,"interior":"UNACCEPTABLE","name":"HH-GO8276","vin":"WME4513341K416208"},{"address":"Am Ziegelteich 32 - 44, 22525 Hamburg (Umkreis 100m)","coordinates":[9.93286,53.57577,0],"engineType":"CE","exterior":"GOOD","fuel":24,"interior":"GOOD","name":"HH-GO8280","vin":"WME4513341K415821"},{"address":"Bismarckstraße 18, 20259 Hamburg","coordinates":[9.96181,53.57255,0],"engineType":"CE","exterior":"GOOD","fuel":57,"interior":"GOOD","name":"HH-GO8282","vin":"WME4513341K416167"},{"address":"Brook 2, 20457 Hamburg","coordinates":[9.99377,53.54439,0],"engineType":"CE","exterior":"GOOD","fuel":33,"interior":"UNACCEPTABLE","name":"HH-GO8286","vin":"WME4513341K416129"},{"address":"In der Masch 2, 22453 Hamburg","coordinates":[9.97006,53.61359,0],"engineType":"CE","exterior":"UNACCEPTABLE","fuel":24,"interior":"UNACCEPTABLE","name":"HH-GO8287","vin":"WME4513341K415807"},{"address":"Mumsenstraße 6, 22767 Hamburg","coordinates":[9.951,53.55747,0],"engineType":"CE","exterior":"UNACCEPTABLE","fuel":90,"interior":"UNACCEPTABLE","name":"HH-GO8288","vin":"WME4513341K416121"},{"address":"Marseiller Straße 5, 20355 Hamburg (Umkreis 300m)","coordinates":[9.98543,53.56072,0],"engineType":"CE","exterior":"GOOD","fuel":54,"interior":"GOOD","name":"HH-GO8289","vin":"WME4513341K416401"},{"address":"Bäckerbreitergang 73, 20355 Hamburg","coordinates":[9.9819,53.55378,0],"engineType":"CE","exterior":"GOOD","fuel":96,"interior":"GOOD","name":"HH-GO8290","vin":"WME4513341K416099"},{"address":"Quarzweg 4, 22395 Hamburg","coordinates":[10.09565,53.65846,0],"engineType":"CE","exterior":"GOOD","fuel":24,"interior":"GOOD","name":"HH-GO8291","vin":"WME4513341K416418"},{"address":"Nesselstraße 22, 22335 Hamburg","coordinates":[10.0184,53.61941,0],"engineType":"CE","exterior":"UNACCEPTABLE","fuel":33,"interior":"UNACCEPTABLE","name":"HH-GO8292","vin":"WME4513341K416090"},{"address":"Ring 2, 20253 Hamburg","coordinates":[9.96573,53.58163,0],"engineType":"CE","exterior":"GOOD","fuel":100,"interior":"GOOD","name":"HH-GO8293","vin":"WME4513341K416426"},{"address":"Krieterstraße 10, 21109 Hamburg","coordinates":[10.01259,53.49903,0],"engineType":"CE","exterior":"GOOD","fuel":100,"interior":"GOOD","name":"HH-GO8295","vin":"WME4513341K416067"},{"address":"Burchardstraße 17 - 21, 20095 Hamburg (Umkreis 100m)","coordinates":[10.00087,53.54918,0],"engineType":"CE","exterior":"GOOD","fuel":63,"interior":"GOOD","name":"HH-GO8296","vin":"WME4513341K416043"},{"address":"Eiffestraße 26 - 38, 20537 Hamburg (Umkreis 100m)","coordinates":[10.03302,53.55238,0],"engineType":"CE","exterior":"GOOD","fuel":87,"interior":"GOOD","name":"HH-GO8298","vin":"WME4513341K416021"},{"address":"Hoheluftchaussee 109, 20253 Hamburg","coordinates":[9.97113,53.58246,0],"engineType":"CE","exterior":"UNACCEPTABLE","fuel":69,"interior":"UNACCEPTABLE","name":"HH-GO8300","vin":"WME4513341K416028"},{"address":"Baron-Voght-Straße 2, 22609 Hamburg","coordinates":[9.86419,53.54833,0],"engineType":"CE","exterior":"GOOD","fuel":66,"interior":"GOOD","name":"HH-GO8553","vin":"WME4513341K417059"},{"address":"Beimoorstraße 10, 22081 Hamburg","coordinates":[10.04341,53.5803,0],"engineType":"CE","exterior":"GOOD","fuel":69,"interior":"GOOD","name":"HH-GO8302","vin":"WME4513341K416008"},{"address":"Bostelreihe 2, 22083 Hamburg","coordinates":[10.02985,53.57316,0],"engineType":"CE","exterior":"GOOD","fuel":24,"interior":"GOOD","name":"HH-GO8320","vin":"WME4513341K417079"},{"address":"Am Hohen Hause 5, 22047 Hamburg","coordinates":[10.11168,53.59147,0],"engineType":"CE","exterior":"GOOD","fuel":36,"interior":"GOOD","name":"HH-GO8304","vin":"WME4513341K415999"},{"address":"Berner Heerweg 48, 22159 Hamburg","coordinates":[10.11546,53.59568,0],"engineType":"CE","exterior":"GOOD","fuel":75,"interior":"GOOD","name":"HH-GO8306","vin":"WME4513341K415991"},{"address":"Feuerbergstraße 2, 22337 Hamburg","coordinates":[10.03537,53.61437,0],"engineType":"CE","exterior":"GOOD","fuel":54,"interior":"GOOD","name":"HH-GO8311","vin":"WME4513341K417475"},{"address":"Hannoversche Straße 85, 21079 Hamburg","coordinates":[9.99042,53.45576,0],"engineType":"CE","exterior":"UNACCEPTABLE","fuel":78,"interior":"UNACCEPTABLE","name":"HH-GO8489","vin":"WME4513341K563742"},{"address":"Kaiser-Friedrich-Ufer 5, 20253 Hamburg","coordinates":[9.96753,53.57404,0],"engineType":"CE","exterior":"UNACCEPTABLE","fuel":100,"interior":"UNACCEPTABLE","name":"HH-GO8490","vin":"WME4513341K561567"},{"address":"Kielmannseggstraße 67, 22043 Hamburg","coordinates":[10.0923,53.56806,0],"engineType":"CE","exterior":"GOOD","fuel":36,"interior":"GOOD","name":"HH-GO8491","vin":"WME4513341K564022"},{"address":"Maxstraße 7, 22089 Hamburg","coordinates":[10.04982,53.56895,0],"engineType":"CE","exterior":"GOOD","fuel":84,"interior":"GOOD","name":"HH-GO8492","vin":"WME4513341K564339"},{"address":"Bannwarthstraße, 22179 Hamburg","coordinates":[10.07694,53.60179,0],"engineType":"CE","exterior":"UNACCEPTABLE","fuel":45,"interior":"GOOD","name":"HH-GO8493","vin":"WME4513341K564409"},{"address":"Nesselstraße 25, 22335 Hamburg","coordinates":[10.01867,53.61924,0],"engineType":"CE","exterior":"GOOD","fuel":63,"interior":"GOOD","name":"HH-GO8494","vin":"WME4513341K564450"},{"address":"Flachsland 43, 22083 Hamburg","coordinates":[10.0425,53.5845,0],"engineType":"CE","exterior":"UNACCEPTABLE","fuel":100,"interior":"UNACCEPTABLE","name":"HH-GO8497","vin":"WME4513341K564708"},{"address":"Friedrich-Ebert-Damm 118 - 120, 22047 Hamburg (Umkreis 100m)","coordinates":[10.09372,53.5881,0],"engineType":"CE","exterior":"UNACCEPTABLE","fuel":100,"interior":"UNACCEPTABLE","name":"HH-GO8498","vin":"WME4513341K564844"},{"address":"Papenstraße 8, 22089 Hamburg","coordinates":[10.0381,53.56469,0],"engineType":"CE","exterior":"GOOD","fuel":100,"interior":"GOOD","name":"HH-GO8502","vin":"WME4513341K561124"},{"address":"Am Hasenberge 4, 22335 Hamburg","coordinates":[10.02001,53.62396,0],"engineType":"CE","exterior":"GOOD","fuel":75,"interior":"GOOD","name":"HH-GO8503","vin":"WME4513341K561040"},{"address":"Am Schiffbeker Berg 14, 22111 Hamburg","coordinates":[10.09346,53.54208,0],"engineType":"CE","exterior":"GOOD","fuel":87,"interior":"GOOD","name":"HH-GO8506","vin":"WME4513341K560717"},{"address":"Karlstraße 2, 22085 Hamburg","coordinates":[10.00829,53.574,0],"engineType":"CE","exterior":"UNACCEPTABLE","fuel":84,"interior":"GOOD","name":"HH-GO8507","vin":"WME4513341K560867"},{"address":"Isebekstraße 9 - 11, 22769 Hamburg (Umkreis 100m)","coordinates":[9.93548,53.56849,0],"engineType":"CE","exterior":"GOOD","fuel":60,"interior":"GOOD","name":"HH-GO8508","vin":"WME4513341K562917"},{"address":"Drehbahn 36, 20354 Hamburg","coordinates":[9.98496,53.55653,0],"engineType":"CE","exterior":"UNACCEPTABLE","fuel":36,"interior":"UNACCEPTABLE","name":"HH-GO8509","vin":"WME4513341K565374"},{"address":"Kurdamm 18, 21107 Hamburg","coordinates":[9.99404,53.49605,0],"engineType":"CE","exterior":"GOOD","fuel":100,"interior":"GOOD","name":"HH-GO8511","vin":"WME4513341K562173"},{"address":"Augustenburger Ufer 12, 22049 Hamburg","coordinates":[10.0619,53.58688,0],"engineType":"CE","exterior":"GOOD","fuel":96,"interior":"GOOD","name":"HH-GO8512","vin":"WME4513341K563879"},{"address":"Ruhrstraße 59, 22761 Hamburg","coordinates":[9.92502,53.56653,0],"engineType":"CE","exterior":"GOOD","fuel":100,"interior":"GOOD","name":"HH-GO8322","vin":"WME4513341K556161"},{"address":"Hegholt 71, 22179 Hamburg","coordinates":[10.0841,53.60687,0],"engineType":"CE","exterior":"UNACCEPTABLE","fuel":100,"interior":"GOOD","name":"HH-GO8323","vin":"WME4513341K564280"},{"address":"Ring 3, 22393 Hamburg","coordinates":[10.10428,53.65326,0],"engineType":"CE","exterior":"GOOD","fuel":18,"interior":"GOOD","name":"HH-GO8325","vin":"WME4513341K564355"},{"address":"Wunderbrunnen 1, 22457 Hamburg","coordinates":[9.92745,53.64768,0],"engineType":"CE","exterior":"UNACCEPTABLE","fuel":45,"interior":"UNACCEPTABLE","name":"HH-GO8328","vin":"WME4513341K564379"},{"address":"Stellinger Steindamm 12, 22527 Hamburg","coordinates":[9.9282,53.5937,0],"engineType":"CE","exterior":"GOOD","fuel":100,"interior":"GOOD","name":"HH-GO8331","vin":"WME4513341K564444"},{"address":"Liebermannstraße 1, 22605 Hamburg","coordinates":[9.90063,53.54606,0],"engineType":"CE","exterior":"GOOD","fuel":54,"interior":"GOOD","name":"HH-GO8334","vin":"WME4513341K564570"},{"address":"Grindelberg 56, 20144 Hamburg","coordinates":[9.97776,53.57455,0],"engineType":"CE","exterior":"UNACCEPTABLE","fuel":100,"interior":"GOOD","name":"HH-GO8336","vin":"WME4513341K564666"},{"address":"Osdorfer Weg 131, 22607 Hamburg (Umkreis 300m)","coordinates":[9.88527,53.56846,0],"engineType":"CE","exterior":"GOOD","fuel":84,"interior":"GOOD","name":"HH-GO8476","vin":"WME4513341K564695"},{"address":"Sauerampferweg 36, 22179 Hamburg","coordinates":[10.07084,53.59643,0],"engineType":"CE","exterior":"UNACCEPTABLE","fuel":60,"interior":"UNACCEPTABLE","name":"HH-GO8338","vin":"WME4513341K564702"},{"address":"Langenstücken 17, 22393 Hamburg","coordinates":[10.09494,53.65311,0],"engineType":"CE","exterior":"GOOD","fuel":96,"interior":"GOOD","name":"HH-GO8339","vin":"WME4513341K564719"},{"address":"Rudolf-Ross-Allee 31, 22119 Hamburg","coordinates":[10.10106,53.56072,0],"engineType":"CE","exterior":"GOOD","fuel":100,"interior":"GOOD","name":"HH-GO8340","vin":"WME4513341K564725"},{"address":"Parkhaus Bleichenhof, Parkdeck R","coordinates":[9.98673,53.55201,0],"engineType":"CE","exterior":"GOOD","fuel":75,"interior":"GOOD","name":"HH-GO8343","vin":"WME4513341K564787"},{"address":"Langenstücken 9, 22393 Hamburg","coordinates":[10.0946,53.65253,0],"engineType":"CE","exterior":"GOOD","fuel":66,"interior":"GOOD","name":"HH-GO8344","vin":"WME4513341K564832"},{"address":"Stengelestraße 43, 22111 Hamburg","coordinates":[10.09435,53.55082,0],"engineType":"CE","exterior":"UNACCEPTABLE","fuel":30,"interior":"UNACCEPTABLE","name":"HH-GO8346","vin":"WME4513341K564879"},{"address":"Goldbekufer 29, 22303 Hamburg","coordinates":[10.01676,53.58725,0],"engineType":"CE","exterior":"GOOD","fuel":27,"interior":"GOOD","name":"HH-GO8347","vin":"WME4513341K564888"},{"address":"Timmermannstraße 11, 22299 Hamburg","coordinates":[10.00038,53.59746,0],"engineType":"CE","exterior":"GOOD","fuel":51,"interior":"GOOD","name":"HH-GO8348","vin":"WME4513341K564899"},{"address":"Hebbelstraße 3, 22085 Hamburg","coordinates":[10.01802,53.57635,0],"engineType":"CE","exterior":"GOOD","fuel":27,"interior":"GOOD","name":"HH-GO8350","vin":"WME4513341K564931"},{"address":"Am Husarendenkmal 41, 22043 Hamburg","coordinates":[10.0768,53.56451,0],"engineType":"CE","exterior":"GOOD","fuel":42,"interior":"GOOD","name":"HH-GO8353","vin":"WME4513341K564976"},{"address":"Fuhlentwiete 3, 20355 Hamburg","coordinates":[9.98493,53.55386,0],"engineType":"CE","exterior":"GOOD","fuel":100,"interior":"GOOD","name":"HH-GO8354","vin":"WME4513341K565026"},{"address":"Herbstsweg 14, 22307 Hamburg","coordinates":[10.04947,53.59558,0],"engineType":"CE","exterior":"GOOD","fuel":60,"interior":"GOOD","name":"HH-GO8355","vin":"WME4513341K565043"},{"address":"Daimlerstraße 13, 22763 Hamburg","coordinates":[9.92104,53.5574,0],"engineType":"CE","exterior":"UNACCEPTABLE","fuel":100,"interior":"UNACCEPTABLE","name":"HH-GO8359","vin":"WME4513341K565111"},{"address":"Kirchenhang 33, 21073 Hamburg","coordinates":[9.95613,53.45461,0],"engineType":"CE","exterior":"GOOD","fuel":100,"interior":"GOOD","name":"HH-GO8360","vin":"WME4513341K565140"},{"address":"Timmermannstraße 2, 22299 Hamburg","coordinates":[10.00045,53.59687,0],"engineType":"CE","exterior":"UNACCEPTABLE","fuel":66,"interior":"UNACCEPTABLE","name":"HH-GO8361","vin":"WME4513341K565155"},{"address":"Rolfinckstraße 78, 22391 Hamburg","coordinates":[10.09333,53.6389,0],"engineType":"CE","exterior":"GOOD","fuel":78,"interior":"GOOD","name":"HH-GO8362","vin":"WME4513341K565183"},{"address":"Seilerstraße 26, 20359 Hamburg","coordinates":[9.96588,53.55048,0],"engineType":"CE","exterior":"UNACCEPTABLE","fuel":27,"interior":"UNACCEPTABLE","name":"HH-GO8364","vin":"WME4513341K565330"},{"address":"Stavenhagenstraße 28, 22453 Hamburg","coordinates":[9.96874,53.61193,0],"engineType":"CE","exterior":"UNACCEPTABLE","fuel":100,"interior":"UNACCEPTABLE","name":"HH-GO8366","vin":"WME4513341K565402"},{"address":"Saseler Chaussee 140, 22393 Hamburg","coordinates":[10.10354,53.64891,0],"engineType":"CE","exterior":"GOOD","fuel":100,"interior":"GOOD","name":"HH-GO8368","vin":"WME4513341K565463"},{"address":"Albert-Schweitzer-Ring 20, 22045 Hamburg","coordinates":[10.11994,53.58008,0],"engineType":"CE","exterior":"GOOD","fuel":30,"interior":"GOOD","name":"HH-GO8369","vin":"WME4513341K565488"},{"address":"Mittelweg 42, 20148 Hamburg","coordinates":[9.99497,53.57132,0],"engineType":"CE","exterior":"UNACCEPTABLE","fuel":100,"interior":"UNACCEPTABLE","name":"HH-GO8370","vin":"WME4513341K565500"},{"address":"Rabenhorst 1, 22391 Hamburg","coordinates":[10.08448,53.64084,0],"engineType":"CE","exterior":"GOOD","fuel":100,"interior":"GOOD","name":"HH-GO8371","vin":"WME4513341K565534"},{"address":"Gräningstieg 6, 22525 Hamburg","coordinates":[9.93227,53.58485,0],"engineType":"CE","exterior":"GOOD","fuel":36,"interior":"GOOD","name":"HH-GO8372","vin":"WME4513341K565537"},{"address":"Am Hasenberge 4, 22335 Hamburg","coordinates":[10.01999,53.6239,0],"engineType":"CE","exterior":"GOOD","fuel":69,"interior":"GOOD","name":"HH-GO8374","vin":"WME4513341K565636"},{"address":"Alsterdorfer Straße 341, 22297 Hamburg","coordinates":[10.01281,53.61109,0],"engineType":"CE","exterior":"GOOD","fuel":100,"interior":"GOOD","name":"HH-GO8378","vin":"WME4513341K565744"},{"address":"Tilsiter Straße 74, 22047 Hamburg","coordinates":[10.08717,53.59121,0],"engineType":"CE","exterior":"GOOD","fuel":93,"interior":"GOOD","name":"HH-GO8379","vin":"WME4513341K565753"},{"address":"Hagenbeckstraße 134, 22527 Hamburg","coordinates":[9.94012,53.59196,0],"engineType":"CE","exterior":"GOOD","fuel":87,"interior":"GOOD","name":"HH-GO8380","vin":"WME4513341K565757"},{"address":"Ruhrstraße 59, 22761 Hamburg","coordinates":[9.9246,53.56666,0],"engineType":"CE","exterior":"UNACCEPTABLE","fuel":100,"interior":"UNACCEPTABLE","name":"HH-GO8385","vin":"WME4513341K565800"},{"address":"Schnackenburgallee 52, 22525 Hamburg","coordinates":[9.91816,53.5802,0],"engineType":"CE","exterior":"GOOD","fuel":57,"interior":"GOOD","name":"HH-GO8386","vin":"WME4513341K565829"},{"address":"Saseler Chaussee 18, 22391 Hamburg","coordinates":[10.09172,53.63499,0],"engineType":"CE","exterior":"GOOD","fuel":51,"interior":"UNACCEPTABLE","name":"HH-GO8387","vin":"WME4513341K565847"},{"address":"Mittelweg 184 - 188, 20148 Hamburg (Umkreis 300m)","coordinates":[9.99217,53.56156,0],"engineType":"CE","exterior":"UNACCEPTABLE","fuel":54,"interior":"UNACCEPTABLE","name":"HH-GO8389","vin":"WME4513341K565897"},{"address":"Schnackenburgallee 52, 22525 Hamburg","coordinates":[9.9182,53.58012,0],"engineType":"CE","exterior":"GOOD","fuel":36,"interior":"GOOD","name":"HH-GO8390","vin":"WME4513341K565906"},{"address":"Parkhaus Bleichenhof, Parkdeck R","coordinates":[9.98673,53.55201,0],"engineType":"CE","exterior":"GOOD","fuel":63,"interior":"GOOD","name":"HH-GO8392","vin":"WME4513341K565927"},{"address":"Elbchaussee 330 - 332, 22609 Hamburg (Umkreis 100m)","coordinates":[9.86353,53.54765,0],"engineType":"CE","exterior":"GOOD","fuel":100,"interior":"GOOD","name":"HH-GO8393","vin":"WME4513341K565939"},{"address":"Fabriciusstraße 13, 22177 Hamburg","coordinates":[10.05901,53.59511,0],"engineType":"CE","exterior":"GOOD","fuel":36,"interior":"GOOD","name":"HH-GO8398","vin":"WME4513341K566041"},{"address":"Berlinertordamm, 20097 Hamburg","coordinates":[10.02379,53.55346,0],"engineType":"CE","exterior":"GOOD","fuel":48,"interior":"GOOD","name":"HH-GO8399","vin":"WME4513341K566051"},{"address":"Ring 2, 22769 Hamburg","coordinates":[9.9507,53.56493,0],"engineType":"CE","exterior":"GOOD","fuel":54,"interior":"GOOD","name":"HH-GO8400","vin":"WME4513341K566082"},{"address":"Stoltenstraße 32, 22119 Hamburg","coordinates":[10.09548,53.56182,0],"engineType":"CE","exterior":"GOOD","fuel":48,"interior":"GOOD","name":"HH-GO8401","vin":"WME4513341K566134"},{"address":"Baron-Voght-Straße 102 - 106, 22607 Hamburg (Umkreis 100m)","coordinates":[9.86508,53.55915,0],"engineType":"CE","exterior":"GOOD","fuel":78,"interior":"GOOD","name":"HH-GO8404","vin":"WME4513341K566165"},{"address":"Grosse Bleichen 35, 20354 Hamburg","coordinates":[9.9871,53.55217,0],"engineType":"CE","exterior":"GOOD","fuel":57,"interior":"GOOD","name":"HH-GO8405","vin":"WME4513341K566193"},{"address":"Lockkoppel 15, 22391 Hamburg","coordinates":[10.08746,53.64323,0],"engineType":"CE","exterior":"GOOD","fuel":100,"interior":"GOOD","name":"HH-GO8407","vin":"WME4513341K566241"},{"address":"Rümkerstraße 17, 22307 Hamburg","coordinates":[10.04837,53.60083,0],"engineType":"CE","exterior":"GOOD","fuel":36,"interior":"GOOD","name":"HH-GO8408","vin":"WME4513341K566247"},{"address":"Hermannstal 5 - 9, 22119 Hamburg (Umkreis 300m)","coordinates":[10.08808,53.55444,0],"engineType":"CE","exterior":"UNACCEPTABLE","fuel":42,"interior":"GOOD","name":"HH-GO8409","vin":"WME4513341K566269"},{"address":"Frahmredder 32, 22393 Hamburg","coordinates":[10.09839,53.64941,0],"engineType":"CE","exterior":"GOOD","fuel":33,"interior":"GOOD","name":"HH-GO8552","vin":"WME4513341K566484"},{"address":"Alsterdorfer Straße 519, 22337 Hamburg","coordinates":[10.02805,53.61792,0],"engineType":"CE","exterior":"UNACCEPTABLE","fuel":33,"interior":"UNACCEPTABLE","name":"HH-GO8415","vin":"WME4513341K566488"},{"address":"Bandwirkerstraße 15, 22041 Hamburg","coordinates":[10.06229,53.5767,0],"engineType":"CE","exterior":"UNACCEPTABLE","fuel":45,"interior":"UNACCEPTABLE","name":"HH-GO8416","vin":"WME4513341K566496"},{"address":"Sanmannreihe 39, 21031 Hamburg","coordinates":[10.20337,53.50019,0],"engineType":"CE","exterior":"GOOD","fuel":87,"interior":"UNACCEPTABLE","name":"HH-GO8419","vin":"WME4513341K566612"},{"address":"Hindenburgstraße 76, 22297 Hamburg","coordinates":[10.01227,53.60809,0],"engineType":"CE","exterior":"GOOD","fuel":100,"interior":"GOOD","name":"HH-GO8420","vin":"WME4513341K566622"},{"address":"Baumkamp 83, 22299 Hamburg","coordinates":[10.00347,53.59917,0],"engineType":"CE","exterior":"UNACCEPTABLE","fuel":100,"interior":"UNACCEPTABLE","name":"HH-GO8421","vin":"WME4513341K566633"},{"address":"Überseering 12, 22297 Hamburg","coordinates":[10.02382,53.60736,0],"engineType":"CE","exterior":"GOOD","fuel":42,"interior":"GOOD","name":"HH-GO8424","vin":"WME4513341K566666"},{"address":"Kramerkoppel 4, 22041 Hamburg","coordinates":[10.09841,53.57827,0],"engineType":"CE","exterior":"GOOD","fuel":78,"interior":"GOOD","name":"HH-GO8425","vin":"WME4513341K566675"},{"address":"Trauns Allee 12, 22043 Hamburg","coordinates":[10.06775,53.56573,0],"engineType":"CE","exterior":"UNACCEPTABLE","fuel":45,"interior":"UNACCEPTABLE","name":"HH-GO8426","vin":"WME4513341K566682"},{"address":"Saseler Chaussee 94, 22393 Hamburg","coordinates":[10.09964,53.64386,0],"engineType":"CE","exterior":"GOOD","fuel":87,"interior":"GOOD","name":"HH-GO8427","vin":"WME4513341K566695"},{"address":"Bandwirkerstraße 18, 22041 Hamburg","coordinates":[10.06279,53.57671,0],"engineType":"CE","exterior":"UNACCEPTABLE","fuel":93,"interior":"UNACCEPTABLE","name":"HH-GO8428","vin":"WME4513341K566698"},{"address":"Lindeneck 23, 22391 Hamburg","coordinates":[10.09326,53.63885,0],"engineType":"CE","exterior":"GOOD","fuel":54,"interior":"GOOD","name":"HH-GO8430","vin":"WME4513341K566721"},{"address":"switchh - Berliner Tor","coordinates":[10.02377,53.55328,0],"engineType":"CE","exterior":"GOOD","fuel":66,"interior":"GOOD","name":"HH-GO8434","vin":"WME4513341K566858"},{"address":"Spaldingstraße 131, 20097 Hamburg","coordinates":[10.0231,53.55112,0],"engineType":"CE","exterior":"GOOD","fuel":51,"interior":"GOOD","name":"HH-GO8440","vin":"WME4513341K566921"},{"address":"Winsbergring 24, 22525 Hamburg","coordinates":[9.91296,53.57544,0],"engineType":"CE","exterior":"UNACCEPTABLE","fuel":57,"interior":"UNACCEPTABLE","name":"HH-GO8442","vin":"WME4513341K566966"},{"address":"Agnesstraße 41, 22301 Hamburg","coordinates":[9.99825,53.58313,0],"engineType":"CE","exterior":"GOOD","fuel":69,"interior":"UNACCEPTABLE","name":"HH-GO8443","vin":"WME4513341K566972"},{"address":"Europcar Hauptverwaltung","coordinates":[10.01813,53.6524,0],"engineType":"CE","exterior":"GOOD","fuel":81,"interior":"GOOD","name":"HH-GO8446","vin":"WME4513341K567002"},{"address":"Röbkestraße 9, 22393 Hamburg","coordinates":[10.10621,53.64773,0],"engineType":"CE","exterior":"GOOD","fuel":87,"interior":"GOOD","name":"HH-GO8448","vin":"WME4513341K567075"},{"address":"Vogelhüttendeich 85, 21107 Hamburg","coordinates":[9.99206,53.51665,0],"engineType":"CE","exterior":"GOOD","fuel":18,"interior":"GOOD","name":"HH-GO8451","vin":"WME4513341K567174"},{"address":"Max-Zelck-Straße 12, 22459 Hamburg","coordinates":[9.94737,53.62129,0],"engineType":"CE","exterior":"GOOD","fuel":100,"interior":"GOOD","name":"HH-GO8452","vin":"WME4513341K567223"},{"address":"Langenstücken 17, 22393 Hamburg","coordinates":[10.09508,53.65322,0],"engineType":"CE","exterior":"GOOD","fuel":30,"interior":"GOOD","name":"HH-GO8453","vin":"WME4513341K567241"},{"address":"Elise-Lensing-Weg 6, 22305 Hamburg","coordinates":[10.06002,53.58742,0],"engineType":"CE","exterior":"UNACCEPTABLE","fuel":81,"interior":"UNACCEPTABLE","name":"HH-GO8455","vin":"WME4513341K567275"},{"address":"Rehmstraße 7, 22299 Hamburg","coordinates":[9.99858,53.59722,0],"engineType":"CE","exterior":"GOOD","fuel":57,"interior":"GOOD","name":"HH-GO8456","vin":"WME4513341K567283"},{"address":"Lokstedter Grenzstraße 2, 22527 Hamburg","coordinates":[9.94262,53.59614,0],"engineType":"CE","exterior":"UNACCEPTABLE","fuel":21,"interior":"GOOD","name":"HH-GO8457","vin":"WME4513341K567308"},{"address":"Sommerhuder Straße 10, 22769 Hamburg","coordinates":[9.9542,53.56302,0],"engineType":"CE","exterior":"UNACCEPTABLE","fuel":54,"interior":"GOOD","name":"HH-GO8458","vin":"WME4513341K567318"},{"address":"Dag-Hammarskjöld-Platz 2, 20354 Hamburg (Umkreis 100m)","coordinates":[9.989,53.56067,0],"engineType":"CE","exterior":"GOOD","fuel":100,"interior":"GOOD","name":"HH-GO8459","vin":"WME4513341K567330"},{"address":"Hindenburgstraße 49, 22297 Hamburg","coordinates":[10.01238,53.60548,0],"engineType":"CE","exterior":"GOOD","fuel":60,"interior":"GOOD","name":"HH-GO8460","vin":"WME4513341K567338"},{"address":"New-York-Ring 11, 22297 Hamburg","coordinates":[10.01889,53.60376,0],"engineType":"CE","exterior":"UNACCEPTABLE","fuel":33,"interior":"UNACCEPTABLE","name":"HH-GO8461","vin":"WME4513341K567372"},{"address":"Kunaustraße 4, 22393 Hamburg","coordinates":[10.1104,53.65302,0],"engineType":"CE","exterior":"GOOD","fuel":75,"interior":"GOOD","name":"HH-GO8462","vin":"WME4513341K567378"},{"address":"Holländischer Brook 5, 20457 Hamburg","coordinates":[9.99831,53.54511,0],"engineType":"CE","exterior":"GOOD","fuel":33,"interior":"GOOD","name":"HH-GO8463","vin":"WME4513341K567384"},{"address":"Grosse Bahnstraße 26, 22525 Hamburg","coordinates":[9.93718,53.57437,0],"engineType":"CE","exterior":"GOOD","fuel":36,"interior":"GOOD","name":"HH-GO8550","vin":"WME4513341K567450"},{"address":"Zeughausmarkt 22, 20459 Hamburg","coordinates":[9.97444,53.54896,0],"engineType":"CE","exterior":"GOOD","fuel":15,"interior":"UNACCEPTABLE","name":"HH-GO8467","vin":"WME4513341K567462"},{"address":"Nöltingstraße 48, 22765 Hamburg","coordinates":[9.92755,53.55298,0],"engineType":"CE","exterior":"GOOD","fuel":30,"interior":"GOOD","name":"HH-GO8483","vin":"WME4513341K567480"},{"address":"Neanderstraße 35, 20459 Hamburg","coordinates":[9.97734,53.5518,0],"engineType":"CE","exterior":"GOOD","fuel":75,"interior":"GOOD","name":"HH-GO8469","vin":"WME4513341K567498"},{"address":"Walddörferstraße 6, 22041 Hamburg","coordinates":[10.06577,53.57905,0],"engineType":"CE","exterior":"GOOD","fuel":75,"interior":"GOOD","name":"HH-GO8470","vin":"WME4513341K567510"},{"address":"Lienhardstraße 4, 22305 Hamburg","coordinates":[10.03974,53.59035,0],"engineType":"CE","exterior":"GOOD","fuel":39,"interior":"GOOD","name":"HH-GO8513","vin":"WME4513341K561594"},{"address":"Deichstraße 51, 20459 Hamburg","coordinates":[9.98678,53.54527,0],"engineType":"CE","exterior":"GOOD","fuel":51,"interior":"GOOD","name":"HH-GO8514","vin":"WME4513341K565414"},{"address":"Ulmenliet 41, 21033 Hamburg","coordinates":[10.20224,53.49185,0],"engineType":"CE","exterior":"UNACCEPTABLE","fuel":48,"interior":"UNACCEPTABLE","name":"HH-GO8515","vin":"WME4513341K566804"},{"address":"Lindner Hotels & Resorts HAGENBECK","coordinates":[9.93985,53.59377,0],"engineType":"CE","exterior":"GOOD","fuel":30,"interior":"GOOD","name":"HH-GO8516","vin":"WME4513341K566731"},{"address":"Harburger Chaussee 91 - 119, 20539 Hamburg (Umkreis 300m)","coordinates":[10.00513,53.52064,0],"engineType":"CE","exterior":"UNACCEPTABLE","fuel":39,"interior":"UNACCEPTABLE","name":"HH-GO8522","vin":"WME4513341K565439"},{"address":"Schneeglöckchenweg 5, 22047 Hamburg","coordinates":[10.07971,53.58534,0],"engineType":"CE","exterior":"GOOD","fuel":60,"interior":"GOOD","name":"HH-GO8523","vin":"WME4513341K570914"},{"address":"Oldachstraße 24, 22307 Hamburg","coordinates":[10.04058,53.5954,0],"engineType":"CE","exterior":"GOOD","fuel":51,"interior":"GOOD","name":"HH-GO8524","vin":"WME4513341K567006"},{"address":"Lange Straße 38, 20359 Hamburg","coordinates":[9.95481,53.54702,0],"engineType":"CE","exterior":"GOOD","fuel":90,"interior":"GOOD","name":"HH-GO8525","vin":"WME4513341K567043"},{"address":"Thielenstraße 29, 21109 Hamburg","coordinates":[10.01243,53.50165,0],"engineType":"CE","exterior":"GOOD","fuel":87,"interior":"GOOD","name":"HH-GO8526","vin":"WME4513341K572126"},{"address":"Tilsiter Straße 134, 22047 Hamburg","coordinates":[10.09375,53.59262,0],"engineType":"CE","exterior":"GOOD","fuel":39,"interior":"GOOD","name":"HH-GO8527","vin":"WME4513341K567097"},{"address":"Wieckstraße 20, 22527 Hamburg","coordinates":[9.94239,53.58354,0],"engineType":"CE","exterior":"GOOD","fuel":100,"interior":"GOOD","name":"HH-GO8530","vin":"WME4513341K567206"},{"address":"Am Hasenberge 4, 22335 Hamburg","coordinates":[10.02052,53.62385,0],"engineType":"CE","exterior":"GOOD","fuel":66,"interior":"GOOD","name":"HH-GO8531","vin":"WME4513341K561020"},{"address":"Eichholz 17, 20459 Hamburg","coordinates":[9.97563,53.54636,0],"engineType":"CE","exterior":"GOOD","fuel":45,"interior":"GOOD","name":"HH-GO8532","vin":"WME4513341K564518"},{"address":"Efeuweg 3, 22299 Hamburg","coordinates":[9.99743,53.60012,0],"engineType":"CE","exterior":"GOOD","fuel":100,"interior":"GOOD","name":"HH-GO8533","vin":"WME4513341K566950"},{"address":"Wellingsbütteler Landstraße 43, 22337 Hamburg","coordinates":[10.03307,53.62755,0],"engineType":"CE","exterior":"GOOD","fuel":27,"interior":"GOOD","name":"HH-GO8536","vin":"WME4513341K562145"},{"address":"Papenstraße 84, 22089 Hamburg","coordinates":[10.04626,53.56533,0],"engineType":"CE","exterior":"UNACCEPTABLE","fuel":100,"interior":"UNACCEPTABLE","name":"HH-GO8538","vin":"WME4513341K565570"},{"address":"Trettaustraße 4, 21107 Hamburg","coordinates":[9.99223,53.49349,0],"engineType":"CE","exterior":"GOOD","fuel":60,"interior":"GOOD","name":"HH-GO8539","vin":"WME4513341K567049"},{"address":"Tegelweg 116, 22159 Hamburg","coordinates":[10.10849,53.60195,0],"engineType":"CE","exterior":"GOOD","fuel":90,"interior":"GOOD","name":"HH-GO8535","vin":"WME4513341K560777"},{"address":"HH Flughafen P4 / Gasse P / Anfahrt ü. \"Depature\"","coordinates":[10.0073,53.63201,0],"engineType":"CE","exterior":"GOOD","fuel":30,"interior":"GOOD","name":"HH-GO8546","vin":"WME4513341K560748"},{"address":"Heinrich-Plett-Straße 69, 22609 Hamburg","coordinates":[9.86369,53.55948,0],"engineType":"CE","exterior":"GOOD","fuel":45,"interior":"UNACCEPTABLE","name":"HH-GO8547","vin":"WME4513341K560876"},{"address":"Lutherhöhe 9, 22761 Hamburg","coordinates":[9.90409,53.56987,0],"engineType":"CE","exterior":"GOOD","fuel":84,"interior":"GOOD","name":"HH-GO8540","vin":"WME4513341K560967"},{"address":"Ernst-Horn-Straße 16, 22525 Hamburg","coordinates":[9.92802,53.58208,0],"engineType":"CE","exterior":"GOOD","fuel":42,"interior":"GOOD","name":"HH-GO8542","vin":"WME4513341K567017"},{"address":"Reinbeker Weg 27, 21029 Hamburg","coordinates":[10.21927,53.49045,0],"engineType":"CE","exterior":"GOOD","fuel":87,"interior":"GOOD","name":"HH-GO8543","vin":"WME4513341K563380"},{"address":"Überseering 13, 22297 Hamburg","coordinates":[10.02493,53.60387,0],"engineType":"CE","exterior":"GOOD","fuel":57,"interior":"GOOD","name":"HH-GO8544","vin":"WME4513341K570923"},{"address":"Berliner Tor 43, 20099 Hamburg","coordinates":[10.02366,53.55461,0],"engineType":"CE","exterior":"GOOD","fuel":45,"interior":"GOOD","name":"HH-GO8557","vin":"WME4513341K560740"},{"address":"Osterbekstraße 90, 22083 Hamburg","coordinates":[10.02693,53.58287,0],"engineType":"CE","exterior":"GOOD","fuel":57,"interior":"GOOD","name":"HH-GO8587","vin":"WME4513341K560752"},{"address":"Grosse Elbstraße 33, 22767 Hamburg","coordinates":[9.94938,53.54446,0],"engineType":"CE","exterior":"GOOD","fuel":27,"interior":"GOOD","name":"HH-GO8558","vin":"WME4513341K560764"},{"address":"Bandwirkerstraße 28, 22041 Hamburg","coordinates":[10.06367,53.5768,0],"engineType":"CE","exterior":"GOOD","fuel":81,"interior":"GOOD","name":"HH-GO8561","vin":"WME4513341K560790"},{"address":"Thedestraße 67, 22767 Hamburg","coordinates":[9.94948,53.55363,0],"engineType":"CE","exterior":"UNACCEPTABLE","fuel":60,"interior":"UNACCEPTABLE","name":"HH-GO8562","vin":"WME4513341K560803"},{"address":"Kollaustraße 95, 22453 Hamburg","coordinates":[9.9606,53.60755,0],"engineType":"CE","exterior":"GOOD","fuel":100,"interior":"GOOD","name":"HH-GO8564","vin":"WME4513341K560863"},{"address":"Parkhaus Bleichenhof, Parkdeck R","coordinates":[9.98673,53.55201,0],"engineType":"CE","exterior":"GOOD","fuel":69,"interior":"GOOD","name":"HH-GO8565","vin":"WME4513341K560884"},{"address":"Domstraße 14, 20095 Hamburg","coordinates":[9.99546,53.54896,0],"engineType":"CE","exterior":"GOOD","fuel":93,"interior":"GOOD","name":"HH-GO8566","vin":"WME4513341K560919"},{"address":"Gellersenweg 4, 21075 Hamburg","coordinates":[9.94873,53.45538,0],"engineType":"CE","exterior":"GOOD","fuel":100,"interior":"GOOD","name":"HH-GO8567","vin":"WME4513341K560975"},{"address":"Rolfinckstraße 30, 22391 Hamburg","coordinates":[10.08616,53.63995,0],"engineType":"CE","exterior":"UNACCEPTABLE","fuel":87,"interior":"GOOD","name":"HH-GO8568","vin":"WME4513341K561012"},{"address":"Hindenburgstraße 80, 22297 Hamburg","coordinates":[10.01225,53.60836,0],"engineType":"CE","exterior":"GOOD","fuel":100,"interior":"GOOD","name":"HH-GO8569","vin":"WME4513341K561036"},{"address":"Neumühlen 17, 22763 Hamburg","coordinates":[9.92165,53.54433,0],"engineType":"CE","exterior":"UNACCEPTABLE","fuel":63,"interior":"GOOD","name":"HH-GO8573","vin":"WME4513341K561150"},{"address":"Schmiedekoppel, 22453 Hamburg","coordinates":[9.95139,53.61282,0],"engineType":"CE","exterior":"GOOD","fuel":42,"interior":"GOOD","name":"HH-GO8575","vin":"WME4513341K561340"},{"address":"Oberstraße 5 - 9, 20144 Hamburg (Umkreis 100m)","coordinates":[9.97876,53.57757,0],"engineType":"CE","exterior":"GOOD","fuel":63,"interior":"GOOD","name":"HH-GO8579","vin":"WME4513341K562009"},{"address":"Lutterothstraße 53, 20255 Hamburg","coordinates":[9.95066,53.58128,0],"engineType":"CE","exterior":"UNACCEPTABLE","fuel":100,"interior":"GOOD","name":"HH-GO8581","vin":"WME4513341K562492"},{"address":"Paul-Gerhardt-Straße 5, 21077 Hamburg","coordinates":[9.98901,53.44737,0],"engineType":"CE","exterior":"UNACCEPTABLE","fuel":27,"interior":"UNACCEPTABLE","name":"HH-GO8583","vin":"WME4513341K567265"},{"address":"Lübbersweg 10 - 16, 21073 Hamburg (Umkreis 100m)","coordinates":[9.95553,53.4555,0],"engineType":"CE","exterior":"GOOD","fuel":90,"interior":"GOOD","name":"HH-GO8584","vin":"WME4513341K567271"},{"address":"Nobléestraße 10, 21075 Hamburg","coordinates":[9.96307,53.46603,0],"engineType":"CE","exterior":"GOOD","fuel":39,"interior":"GOOD","name":"HH-GO8586","vin":"WME4513341K567398"},{"address":"Emil-Andresen-Straße 56, 22529 Hamburg","coordinates":[9.95105,53.5923,0],"engineType":"CE","exterior":"GOOD","fuel":100,"interior":"GOOD","name":"HH-GO8593","vin":"WME4513341K572223"},{"address":"Rauschener Ring 24, 22047 Hamburg","coordinates":[10.08155,53.59607,0],"engineType":"CE","exterior":"GOOD","fuel":63,"interior":"GOOD","name":"HH-GO8595","vin":"WME4513341K571087"},{"address":"Brüdtweg 12, 21033 Hamburg","coordinates":[10.20373,53.49357,0],"engineType":"CE","exterior":"GOOD","fuel":100,"interior":"GOOD","name":"HH-GO8596","vin":"WME4513341K567444"},{"address":"Dehnhaide 115, 22081 Hamburg","coordinates":[10.05151,53.57896,0],"engineType":"CE","exterior":"UNACCEPTABLE","fuel":18,"interior":"UNACCEPTABLE","name":"HH-GO8363","vin":"WME4513341K565201"},{"address":"Oskarstraße 5, 22047 Hamburg","coordinates":[10.09344,53.58141,0],"engineType":"CE","exterior":"GOOD","fuel":24,"interior":"GOOD","name":"HH-GO8445","vin":"WME4513341K566995"},{"address":"Riesserstraße 11 - 15, 20535 Hamburg (Umkreis 100m)","coordinates":[10.04818,53.56178,0],"engineType":"CE","exterior":"UNACCEPTABLE","fuel":100,"interior":"UNACCEPTABLE","name":"HH-GO8488","vin":"WME4513341K413010"},{"address":"Kirchenhang 23, 21073 Hamburg","coordinates":[9.95783,53.45466,0],"engineType":"CE","exterior":"GOOD","fuel":66,"interior":"GOOD","name":"HH-GO8382","vin":"WME4513341K565778"},{"address":"Am Hasenberge 12, 22335 Hamburg","coordinates":[10.02187,53.62353,0],"engineType":"CE","exterior":"UNACCEPTABLE","fuel":100,"interior":"GOOD","name":"HH-GO8215","vin":"WME4513341K415519"},{"address":"Walderseestraße 39 - 43, 22605 Hamburg (Umkreis 300m)","coordinates":[9.89388,53.55753,0],"engineType":"CE","exterior":"GOOD","fuel":75,"interior":"GOOD","name":"HH-GO8037","vin":"WME4513341K414401"},{"address":"Holztwiete 25, 22605 Hamburg","coordinates":[9.87354,53.5477,0],"engineType":"CE","exterior":"UNACCEPTABLE","fuel":84,"interior":"GOOD","name":"HH-GO8447","vin":"WME4513341K567069"},{"address":"Försterweg 8, 22525 Hamburg","coordinates":[9.93325,53.57989,0],"engineType":"CE","exterior":"UNACCEPTABLE","fuel":54,"interior":"UNACCEPTABLE","name":"HH-GO8472","vin":"WME4513341K567588"},{"address":"Grosse Elbstraße 281, 22767 Hamburg","coordinates":[9.92693,53.54445,0],"engineType":"CE","exterior":"GOOD","fuel":48,"interior":"GOOD","name":"HH-GO8157","vin":"WME4513341K414933"},{"address":"Schmiedekoppel, 22453 Hamburg","coordinates":[9.95113,53.61282,0],"engineType":"CE","exterior":"GOOD","fuel":33,"interior":"GOOD","name":"HH-GO8101","vin":"WME4513341K414647"},{"address":"Parkhaus Am Hauptbahnhof, Parkdeck 5","coordinates":[10.00964,53.55471,0],"engineType":"CE","exterior":"GOOD","fuel":78,"interior":"GOOD","name":"HH-GO8194","vin":"WME4513341K415164"},{"address":"Langenstücken 21, 22393 Hamburg","coordinates":[10.09649,53.65326,0],"engineType":"CE","exterior":"GOOD","fuel":39,"interior":"GOOD","name":"HH-GO8500","vin":"WME4513341K561098"},{"address":"Bremer Straße 136, 21073 Hamburg","coordinates":[9.96691,53.45008,0],"engineType":"CE","exterior":"UNACCEPTABLE","fuel":39,"interior":"GOOD","name":"HH-GO8517","vin":"WME4513341K565544"},{"address":"Dammtorwall 15, 20355 Hamburg","coordinates":[9.98251,53.55638,0],"engineType":"CE","exterior":"GOOD","fuel":100,"interior":"GOOD","name":"HH-GO8391","vin":"WME4513341K565923"},{"address":"Vogt-Kölln-Straße 67, 22527 Hamburg","coordinates":[9.93075,53.60237,0],"engineType":"CE","exterior":"GOOD","fuel":60,"interior":"GOOD","name":"HH-GO8441","vin":"WME4513341K566959"},{"address":"Bülowstraße 2, 22763 Hamburg","coordinates":[9.91695,53.5524,0],"engineType":"CE","exterior":"GOOD","fuel":36,"interior":"GOOD","name":"HH-GO8185","vin":"WME4513341K417786"},{"address":"Koreastraße 4, 20457 Hamburg","coordinates":[10.00137,53.54343,0],"engineType":"CE","exterior":"GOOD","fuel":96,"interior":"UNACCEPTABLE","name":"HH-GO8560","vin":"WME4513341K560786"},{"address":"Nagels Allee 1, 22769 Hamburg","coordinates":[9.95788,53.56499,0],"engineType":"CE","exterior":"UNACCEPTABLE","fuel":78,"interior":"UNACCEPTABLE","name":"HH-GO8559","vin":"WME4513341K560782"},{"address":"Hahntrapp 4, 20457 Hamburg","coordinates":[9.99019,53.54809,0],"engineType":"CE","exterior":"GOOD","fuel":51,"interior":"GOOD","name":"HH-GO8198","vin":"WME4513341K415455"},{"address":"Hegestraße 7, 20251 Hamburg","coordinates":[9.98145,53.58306,0],"engineType":"CE","exterior":"UNACCEPTABLE","fuel":93,"interior":"UNACCEPTABLE","name":"HH-GO8161","vin":"WME4513341K417642"},{"address":"Kollaustraße 208, 22453 Hamburg","coordinates":[9.95111,53.61617,0],"engineType":"CE","exterior":"UNACCEPTABLE","fuel":72,"interior":"GOOD","name":"HH-GO8265","vin":"WME4513341K415731"},{"address":"Mexikoring 27, 22297 Hamburg","coordinates":[10.02354,53.60387,0],"engineType":"CE","exterior":"GOOD","fuel":100,"interior":"GOOD","name":"HH-GO8121","vin":"WME4513341K413488"},{"address":"Grosse Elbstraße 281, 22767 Hamburg","coordinates":[9.92615,53.5444,0],"engineType":"CE","exterior":"GOOD","fuel":24,"interior":"GOOD","name":"HH-GO8341","vin":"WME4513341K564766"},{"address":"Steinikestraße 8, 21073 Hamburg","coordinates":[9.97616,53.45537,0],"engineType":"CE","exterior":"GOOD","fuel":48,"interior":"GOOD","name":"HH-GO8036","vin":"WME4513341K413142"},{"address":"Tegelweg 101, 22159 Hamburg","coordinates":[10.10851,53.60212,0],"engineType":"CE","exterior":"GOOD","fuel":84,"interior":"GOOD","name":"HH-GO8574","vin":"WME4513341K561161"},{"address":"Osterkirchstieg 3, 22177 Hamburg","coordinates":[10.07232,53.61087,0],"engineType":"CE","exterior":"GOOD","fuel":100,"interior":"GOOD","name":"HH-GO8572","vin":"WME4513341K561139"},{"address":"Heuberg 1, 20354 Hamburg","coordinates":[9.98726,53.55258,0],"engineType":"CE","exterior":"UNACCEPTABLE","fuel":51,"interior":"UNACCEPTABLE","name":"HH-GO8163","vin":"WME4513341K417706"},{"address":"Stephanstraße 93, 22047 Hamburg","coordinates":[10.08497,53.58753,0],"engineType":"CE","exterior":"GOOD","fuel":100,"interior":"GOOD","name":"HH-GO8195","vin":"WME4513341K415448"},{"address":"Ansorgestraße 8, 22605 Hamburg","coordinates":[9.89622,53.55157,0],"engineType":"CE","exterior":"GOOD","fuel":57,"interior":"GOOD","name":"HH-GO8381","vin":"WME4513341K565763"},{"address":"Gasstraße 2, 22761 Hamburg","coordinates":[9.91731,53.56073,0],"engineType":"CE","exterior":"GOOD","fuel":100,"interior":"GOOD","name":"HH-GO8396","vin":"WME4513341K565998"},{"address":"Kroogblöcke 57, 22119 Hamburg","coordinates":[10.09731,53.55215,0],"engineType":"CE","exterior":"UNACCEPTABLE","fuel":45,"interior":"UNACCEPTABLE","name":"HH-GO8268","vin":"WME4513341K415736"},{"address":"Heuberg 2, 20354 Hamburg","coordinates":[9.98733,53.55247,0],"engineType":"CE","exterior":"UNACCEPTABLE","fuel":100,"interior":"UNACCEPTABLE","name":"HH-GO8570","vin":"WME4513341K561074"},{"address":"Am Stadtrand 45, 22047 Hamburg","coordinates":[10.09861,53.58999,0],"engineType":"CE","exterior":"GOOD","fuel":100,"interior":"UNACCEPTABLE","name":"HH-GO8073","vin":"WME4513341K413751"},{"address":"Ring 1, 20354 Hamburg","coordinates":[9.98792,53.5581,0],"engineType":"CE","exterior":"UNACCEPTABLE","fuel":27,"interior":"GOOD","name":"HH-GO8279","vin":"WME4513341K416201"},{"address":"Hermannstal 111 - 113, 22119 Hamburg (Umkreis 100m)","coordinates":[10.09614,53.55072,0],"engineType":"CE","exterior":"GOOD","fuel":45,"interior":"UNACCEPTABLE","name":"HH-GO8520","vin":"WME4513341K564306"},{"address":"Sauerampferweg 38, 22179 Hamburg","coordinates":[10.07112,53.59653,0],"engineType":"CE","exterior":"GOOD","fuel":100,"interior":"GOOD","name":"HH-GO8072","vin":"WME4513341K413307"},{"address":"Waidmannstraße 31, 22769 Hamburg","coordinates":[9.93871,53.56874,0],"engineType":"CE","exterior":"GOOD","fuel":57,"interior":"GOOD","name":"HH-GO8358","vin":"WME4513341K565107"},{"address":"Hütten 47, 20355 Hamburg","coordinates":[9.97635,53.55154,0],"engineType":"CE","exterior":"GOOD","fuel":48,"interior":"GOOD","name":"HH-GO8450","vin":"WME4513341K567130"},{"address":"Am Veringhof 5, 21107 Hamburg","coordinates":[9.98528,53.51119,0],"engineType":"CE","exterior":"GOOD","fuel":66,"interior":"UNACCEPTABLE","name":"HH-GO8033","vin":"WME4513341K413136"},{"address":"Woermannsweg 18, 22335 Hamburg","coordinates":[10.02835,53.62557,0],"engineType":"CE","exterior":"UNACCEPTABLE","fuel":93,"interior":"UNACCEPTABLE","name":"HH-GO8376","vin":"WME4513341K565700"},{"address":"Eigenheimweg 8, 21077 Hamburg","coordinates":[9.98437,53.44875,0],"engineType":"CE","exterior":"GOOD","fuel":72,"interior":"GOOD","name":"HH-GO8465","vin":"WME4513341K567434"},{"address":"Redder 2, 22393 Hamburg","coordinates":[10.10944,53.65211,0],"engineType":"CE","exterior":"GOOD","fuel":90,"interior":"GOOD","name":"HH-GO8077","vin":"WME4513341K413767"},{"address":"Kieler Straße 56, 22769 Hamburg","coordinates":[9.94412,53.56778,0],"engineType":"CE","exterior":"GOOD","fuel":100,"interior":"GOOD","name":"HH-GO8123","vin":"WME4513341K413956"},{"address":"Hopfensack 19, 20457 Hamburg","coordinates":[9.99875,53.54807,0],"engineType":"CE","exterior":"GOOD","fuel":100,"interior":"GOOD","name":"HH-GO8039","vin":"WME4513341K414411"},{"address":"Gasstraße 6, 22761 Hamburg","coordinates":[9.91604,53.56131,0],"engineType":"CE","exterior":"GOOD","fuel":57,"interior":"GOOD","name":"HH-GO8423","vin":"WME4513341K566645"},{"address":"Wolsteinkamp 3, 22607 Hamburg","coordinates":[9.87464,53.56949,0],"engineType":"CE","exterior":"GOOD","fuel":33,"interior":"UNACCEPTABLE","name":"HH-GO8068","vin":"WME4513341K413740"},{"address":"Husumer Straße 7, 20251 Hamburg","coordinates":[9.97613,53.58593,0],"engineType":"CE","exterior":"UNACCEPTABLE","fuel":72,"interior":"UNACCEPTABLE","name":"HH-GO8120","vin":"WME4513341K413985"},{"address":"Höperfeld 19, 21033 Hamburg","coordinates":[10.20237,53.49524,0],"engineType":"CE","exterior":"GOOD","fuel":18,"interior":"GOOD","name":"HH-GO8324","vin":"WME4513341K564325"},{"address":"Speckenreye 32, 22119 Hamburg","coordinates":[10.09748,53.55348,0],"engineType":"CE","exterior":"UNACCEPTABLE","fuel":66,"interior":"UNACCEPTABLE","name":"HH-GO8556","vin":"WME4513341K560732"},{"address":"Frahmredder 32, 22393 Hamburg","coordinates":[10.09837,53.64947,0],"engineType":"CE","exterior":"GOOD","fuel":100,"interior":"GOOD","name":"HH-GO8243","vin":"WME4513341K415409"},{"address":"Ring 1, 20355 Hamburg","coordinates":[9.97706,53.55373,0],"engineType":"CE","exterior":"GOOD","fuel":100,"interior":"GOOD","name":"HH-GO8471","vin":"WME4513341K567514"},{"address":"Konsul-Francke-Straße 8, 21075 Hamburg","coordinates":[9.95924,53.46797,0],"engineType":"CE","exterior":"GOOD","fuel":100,"interior":"GOOD","name":"HH-GO8270","vin":"WME4513341K415865"},{"address":"Bergiusstraße 12, 22765 Hamburg","coordinates":[9.92763,53.55384,0],"engineType":"CE","exterior":"UNACCEPTABLE","fuel":78,"interior":"GOOD","name":"HH-GO8051","vin":"WME4513341K413200"},{"address":"Georg-Thielen-Gasse 2, 22303 Hamburg","coordinates":[10.03121,53.58696,0],"engineType":"CE","exterior":"GOOD","fuel":33,"interior":"GOOD","name":"HH-GO8110","vin":"WME4513341K413440"},{"address":"Grotenbleken 17, 22391 Hamburg","coordinates":[10.08857,53.65105,0],"engineType":"CE","exterior":"UNACCEPTABLE","fuel":69,"interior":"UNACCEPTABLE","name":"HH-GO8383","vin":"WME4513341K565789"},{"address":"Vosskulen 146, 22047 Hamburg","coordinates":[10.08679,53.59307,0],"engineType":"CE","exterior":"GOOD","fuel":27,"interior":"GOOD","name":"HH-GO8444","vin":"WME4513341K566975"},{"address":"Lindner Hotels & Resorts HAGENBECK","coordinates":[9.93985,53.59377,0],"engineType":"CE","exterior":"GOOD","fuel":60,"interior":"GOOD","name":"HH-GO8519","vin":"WME4513341K571443"},{"address":"Arno-Schmidt-Platz, 20097 Hamburg","coordinates":[10.00797,53.55038,0],"engineType":"CE","exterior":"GOOD","fuel":63,"interior":"GOOD","name":"HH-GO8571","vin":"WME4513341K561085"},{"address":"Im Grünen Grunde 1, 22337 Hamburg","coordinates":[10.03088,53.62135,0],"engineType":"CE","exterior":"GOOD","fuel":81,"interior":"GOOD","name":"HH-GO8285","vin":"WME4513341K416136"},{"address":"Caspar-Voght-Straße 10 - 14, 20535 Hamburg (Umkreis 100m)","coordinates":[10.06186,53.55763,0],"engineType":"CE","exterior":"GOOD","fuel":63,"interior":"GOOD","name":"HH-GO8109","vin":"WME4513341K413916"},{"address":"Rolfinckstraße 76, 22391 Hamburg","coordinates":[10.09326,53.63892,0],"engineType":"CE","exterior":"GOOD","fuel":93,"interior":"GOOD","name":"HH-GO8118","vin":"WME4513341K413474"},{"address":"Teerosenweg 19, 22177 Hamburg","coordinates":[10.06627,53.603,0],"engineType":"CE","exterior":"UNACCEPTABLE","fuel":100,"interior":"UNACCEPTABLE","name":"HH-GO8332","vin":"WME4513341K564497"},{"address":"Daimlertwiete 3, 22763 Hamburg","coordinates":[9.92033,53.55829,0],"engineType":"CE","exterior":"GOOD","fuel":90,"interior":"GOOD","name":"HH-GO8023","vin":"WME4513341K414294"},{"address":"Mehringweg 2 - 12, 21073 Hamburg (Umkreis 100m)","coordinates":[9.95991,53.45705,0],"engineType":"CE","exterior":"GOOD","fuel":78,"interior":"GOOD","name":"HH-GO8266","vin":"WME4513341K416232"},{"address":"Bei den Zelten 8, 22111 Hamburg","coordinates":[10.08073,53.55552,0],"engineType":"CE","exterior":"GOOD","fuel":100,"interior":"GOOD","name":"HH-GO8147","vin":"WME4513341K414869"},{"address":"Parkhaus Bleichenhof, Parkdeck R","coordinates":[9.98673,53.55201,0],"engineType":"CE","exterior":"GOOD","fuel":100,"interior":"GOOD","name":"HH-GO8394","vin":"WME4513341K565947"},{"address":"Gurlittstraße 24, 20099 Hamburg","coordinates":[10.00922,53.55835,0],"engineType":"CE","exterior":"GOOD","fuel":100,"interior":"GOOD","name":"HH-GO8224","vin":"WME4513341K416343"},{"address":"Fischers Allee 38, 22763 Hamburg","coordinates":[9.92227,53.54889,0],"engineType":"CE","exterior":"GOOD","fuel":57,"interior":"GOOD","name":"HH-GO8403","vin":"WME4513341K566159"},{"address":"Enzianstraße 10, 22297 Hamburg","coordinates":[9.99012,53.60333,0],"engineType":"CE","exterior":"GOOD","fuel":36,"interior":"GOOD","name":"HH-GO 8608","vin":"WME4513341K726331"},{"address":"Alsterdorfer Straße 71, 22299 Hamburg","coordinates":[9.99674,53.59869,0],"engineType":"CE","exterior":"GOOD","fuel":96,"interior":"GOOD","name":"HH-GO 8600","vin":"WME4513341K726480"},{"address":"Sankt Georgstraße 19, 20099 Hamburg","coordinates":[10.00657,53.55634,0],"engineType":"CE","exterior":"GOOD","fuel":81,"interior":"GOOD","name":"HH-GO 8601","vin":"WME4513341K724441"},{"address":"Govertsweg 1, 22767 Hamburg","coordinates":[9.94995,53.55462,0],"engineType":"CE","exterior":"GOOD","fuel":100,"interior":"GOOD","name":"HH-GO 8609","vin":"WME4513341K724280"},{"address":"Forsmannstraße 29, 22303 Hamburg","coordinates":[10.01327,53.58502,0],"engineType":"CE","exterior":"GOOD","fuel":39,"interior":"GOOD","name":"HH-GO 8606","vin":"WME4513341K724292"},{"address":"Krayenkamp 15, 20459 Hamburg (Umkreis 100m)","coordinates":[9.97854,53.54781,0],"engineType":"CE","exterior":"GOOD","fuel":18,"interior":"UNACCEPTABLE","name":"HH-GO 8604","vin":"WME4513341K724833"},{"address":"Krohnskamp 70, 22301 Hamburg","coordinates":[10.01143,53.58901,0],"engineType":"CE","exterior":"GOOD","fuel":100,"interior":"GOOD","name":"HH-GO 8607","vin":"WME4513341K726648"},{"address":"Lokstedter Grenzstraße 19, 22527 Hamburg (Umkreis 100m)","coordinates":[9.94309,53.5939,0],"engineType":"CE","exterior":"GOOD","fuel":36,"interior":"GOOD","name":"HH-GO 8602","vin":"WME4513341K724410"},{"address":"Fontenay 10, 20354 Hamburg (Umkreis 300m)","coordinates":[9.99926,53.56528,0],"engineType":"CE","exterior":"GOOD","fuel":39,"interior":"GOOD","name":"HH-GO8624","vin":"WME4513341K724197"},{"address":"Stoltenstraße 28, 22119 Hamburg","coordinates":[10.0952,53.56234,0],"engineType":"CE","exterior":"GOOD","fuel":30,"interior":"GOOD","name":"HH-GO8626","vin":"WME4513341K725513"},{"address":"Krohnskamp 81, 22301 Hamburg","coordinates":[10.01194,53.58937,0],"engineType":"CE","exterior":"GOOD","fuel":60,"interior":"GOOD","name":"HH-GO8619","vin":"WME4513341K726045"},{"address":"Frohmestraße 123, 22459 Hamburg","coordinates":[9.93235,53.62849,0],"engineType":"CE","exterior":"GOOD","fuel":30,"interior":"UNACCEPTABLE","name":"HH-GO8634","vin":"WME4513341K727213"},{"address":"Bahrenfelder Kirchenweg 26, 22763 Hamburg","coordinates":[9.91269,53.5604,0],"engineType":"CE","exterior":"GOOD","fuel":30,"interior":"GOOD","name":"HH-GO8617","vin":"WME4513341K725861"},{"address":"Parkhaus Bleichenhof, Parkdeck R","coordinates":[9.98673,53.55201,0],"engineType":"CE","exterior":"GOOD","fuel":90,"interior":"GOOD","name":"HH-GO8630","vin":"WME4513341K724598"},{"address":"Krähenweg 1, 22459 Hamburg","coordinates":[9.95362,53.63324,0],"engineType":"CE","exterior":"GOOD","fuel":100,"interior":"GOOD","name":"HH-GO8616","vin":"WME4513341K726342"},{"address":"Selliusstraße 5, 20255 Hamburg","coordinates":[9.9507,53.58071,0],"engineType":"CE","exterior":"GOOD","fuel":81,"interior":"UNACCEPTABLE","name":"HH-GO8680","vin":"WME4513341K725414"},{"address":"Wendlohstraße 31, 22459 Hamburg","coordinates":[9.94816,53.62473,0],"engineType":"CE","exterior":"GOOD","fuel":36,"interior":"GOOD","name":"HH-GO8615","vin":"WME4513341K726584"},{"address":"Langenfelder Straße 104, 22769 Hamburg","coordinates":[9.94847,53.56793,0],"engineType":"CE","exterior":"UNACCEPTABLE","fuel":51,"interior":"GOOD","name":"HH-GO8613","vin":"WME4513341K727063"},{"address":"Frohmestraße 128, 22459 Hamburg","coordinates":[9.93245,53.62822,0],"engineType":"CE","exterior":"UNACCEPTABLE","fuel":51,"interior":"UNACCEPTABLE","name":"HH-GO8625","vin":"WME4513341K724714"},{"address":"Auf dem Königslande 23, 22041 Hamburg","coordinates":[10.07588,53.58091,0],"engineType":"CE","exterior":"GOOD","fuel":60,"interior":"GOOD","name":"HH-GO8627","vin":"WME4513341K725295"},{"address":"Bornkamp 3, 22043 Hamburg","coordinates":[10.09666,53.56927,0],"engineType":"CE","exterior":"GOOD","fuel":100,"interior":"GOOD","name":"HH-GO8628","vin":"WME4513341K724297"},{"address":"Bullenredder 5, 22529 Hamburg","coordinates":[9.95591,53.60752,0],"engineType":"CE","exterior":"GOOD","fuel":100,"interior":"GOOD","name":"HH-GO8612","vin":"WME4513341K724963"},{"address":"Parkhaus Bleichenhof, Parkdeck R","coordinates":[9.98673,53.55201,0],"engineType":"CE","exterior":"GOOD","fuel":45,"interior":"GOOD","name":"HH-GO8629","vin":"WME4513341K725062"},{"address":"Osterstraße 177, 20255 Hamburg","coordinates":[9.94651,53.57878,0],"engineType":"CE","exterior":"GOOD","fuel":84,"interior":"GOOD","name":"HH-GO8636","vin":"WME4513341K724867"},{"address":"Böcklerstraße 22, 22119 Hamburg","coordinates":[10.10317,53.56327,0],"engineType":"CE","exterior":"GOOD","fuel":42,"interior":"GOOD","name":"HH-GO8647","vin":"WME4513341K724568"},{"address":"Haferweg 48, 22769 Hamburg","coordinates":[9.93733,53.57171,0],"engineType":"CE","exterior":"GOOD","fuel":48,"interior":"GOOD","name":"HH-GO8684","vin":"WME4513341K725595"},{"address":"Stormarnplatz 6, 22393 Hamburg","coordinates":[10.09437,53.65127,0],"engineType":"CE","exterior":"GOOD","fuel":72,"interior":"GOOD","name":"HH-GO8668","vin":"WME4513341K725050"},{"address":"Papenhuder Straße 28, 22087 Hamburg","coordinates":[10.01933,53.56664,0],"engineType":"CE","exterior":"UNACCEPTABLE","fuel":81,"interior":"UNACCEPTABLE","name":"HH-GO8659","vin":"WME4513341K724813"},{"address":"Dag-Hammarskjöld-Platz 2, 20354 Hamburg (Umkreis 100m)","coordinates":[9.98882,53.56076,0],"engineType":"CE","exterior":"GOOD","fuel":36,"interior":"GOOD","name":"HH-GO8690","vin":"WME4513341K726029"},{"address":"Oelkersallee 21, 22769 Hamburg","coordinates":[9.95486,53.56242,0],"engineType":"CE","exterior":"GOOD","fuel":39,"interior":"GOOD","name":"HH-GO8706","vin":"WME4513341K727076"},{"address":"Langenfelder Straße 64, 22769 Hamburg","coordinates":[9.95328,53.56512,0],"engineType":"CE","exterior":"UNACCEPTABLE","fuel":39,"interior":"GOOD","name":"HH-GO8688","vin":"WME4513341K725817"},{"address":"Försterweg 43, 22525 Hamburg","coordinates":[9.92885,53.57941,0],"engineType":"CE","exterior":"GOOD","fuel":100,"interior":"UNACCEPTABLE","name":"HH-GO8682","vin":"WME4513341K725566"},{"address":"Tribünenweg 19, 22111 Hamburg","coordinates":[10.07929,53.55971,0],"engineType":"CE","exterior":"UNACCEPTABLE","fuel":39,"interior":"UNACCEPTABLE","name":"HH-GO8644","vin":"WME4513341K724512"},{"address":"Hongkongstraße 9, 20457 Hamburg (Umkreis 300m)","coordinates":[10.00263,53.54142,0],"engineType":"CE","exterior":"GOOD","fuel":33,"interior":"GOOD","name":"HH-GO8669","vin":"WME4513341K725055"},{"address":"Weidende 7, 22395 Hamburg","coordinates":[10.10152,53.65394,0],"engineType":"CE","exterior":"GOOD","fuel":51,"interior":"UNACCEPTABLE","name":"HH-GO8694","vin":"WME4513341K726356"},{"address":"Am Tie 12, 21075 Hamburg","coordinates":[9.95096,53.46194,0],"engineType":"CE","exterior":"GOOD","fuel":57,"interior":"GOOD","name":"HH-GO8702","vin":"WME4513341K726894"},{"address":"Studio Hamburg","coordinates":[10.12585,53.58416,0],"engineType":"CE","exterior":"GOOD","fuel":100,"interior":"GOOD","name":"HH-GO8698","vin":"WME4513341K726633"},{"address":"Oberschlesische Straße 20, 22049 Hamburg","coordinates":[10.06667,53.58284,0],"engineType":"CE","exterior":"UNACCEPTABLE","fuel":36,"interior":"GOOD","name":"HH-GO8671","vin":"WME4513341K725097"},{"address":"Gasstraße 2, 22761 Hamburg","coordinates":[9.91908,53.56136,0],"engineType":"CE","exterior":"GOOD","fuel":18,"interior":"GOOD","name":"HH-GO8648","vin":"WME4513341K724609"},{"address":"Hachmannplatz 2, 20099 Hamburg (Umkreis 300m)","coordinates":[10.008,53.55339,0],"engineType":"CE","exterior":"GOOD","fuel":27,"interior":"UNACCEPTABLE","name":"HH-GO8676","vin":"WME4513341K725248"},{"address":"Winterhuder Weg 81, 22085 Hamburg","coordinates":[10.01588,53.57794,0],"engineType":"CE","exterior":"GOOD","fuel":30,"interior":"GOOD","name":"HH-GO8700","vin":"WME4513341K726786"},{"address":"Tilsiter Straße 47, 22049 Hamburg","coordinates":[10.08179,53.59006,0],"engineType":"CE","exterior":"UNACCEPTABLE","fuel":93,"interior":"UNACCEPTABLE","name":"HH-GO8699","vin":"WME4513341K726769"},{"address":"Valparaisostraße 2, 22761 Hamburg","coordinates":[9.91655,53.56457,0],"engineType":"CE","exterior":"GOOD","fuel":33,"interior":"GOOD","name":"HH-GO8654","vin":"WME4513341K724699"},{"address":"Berner Heerweg 61, 22159 Hamburg","coordinates":[10.11603,53.59629,0],"engineType":"CE","exterior":"GOOD","fuel":100,"interior":"GOOD","name":"HH-GO8701","vin":"WME4513341K726813"},{"address":"Tarpenbekstraße 29, 20251 Hamburg (Umkreis 300m)","coordinates":[9.98426,53.59205,0],"engineType":"CE","exterior":"GOOD","fuel":78,"interior":"GOOD","name":"HH-GO8637","vin":"WME4513341K724214"},{"address":"Ostermeyerstraße 5, 22607 Hamburg","coordinates":[9.86752,53.56838,0],"engineType":"CE","exterior":"UNACCEPTABLE","fuel":45,"interior":"UNACCEPTABLE","name":"HH-GO8651","vin":"WME4513341K724661"},{"address":"Isestraße 11 - 31, 20144 Hamburg (Umkreis 300m)","coordinates":[9.97842,53.57909,0],"engineType":"CE","exterior":"GOOD","fuel":54,"interior":"GOOD","name":"HH-GO8666","vin":"WME4513341K725040"},{"address":"Parkhaus Bleichenhof, Parkdeck R","coordinates":[9.98673,53.55201,0],"engineType":"CE","exterior":"GOOD","fuel":51,"interior":"GOOD","name":"HH-GO8712","vin":"WME4513341K727319"},{"address":"Bei den Tennisplätzen 75, 22119 Hamburg","coordinates":[10.08925,53.56069,0],"engineType":"CE","exterior":"GOOD","fuel":36,"interior":"GOOD","name":"HH-GO8661","vin":"WME4513341K724848"},{"address":"Abc-Straße 52, 20354 Hamburg","coordinates":[9.98788,53.55463,0],"engineType":"CE","exterior":"GOOD","fuel":36,"interior":"GOOD","name":"HH-GO8693","vin":"WME4513341K726260"},{"address":"Stresemannstraße 250 - 266, 22769 Hamburg (Umkreis 100m)","coordinates":[9.93762,53.56382,0],"engineType":"CE","exterior":"UNACCEPTABLE","fuel":33,"interior":"UNACCEPTABLE","name":"HH-GO8708","vin":"WME4513341K727139"},{"address":"Ruwoldtweg 8, 22309 Hamburg","coordinates":[10.04805,53.60917,0],"engineType":"CE","exterior":"GOOD","fuel":30,"interior":"UNACCEPTABLE","name":"HH-GO8710","vin":"WME4513341K727289"},{"address":"Bebelallee 147, 22297 Hamburg","coordinates":[10.00839,53.60964,0],"engineType":"CE","exterior":"UNACCEPTABLE","fuel":39,"interior":"UNACCEPTABLE","name":"HH-GO8713","vin":"WME4513341K727367"},{"address":"Am Stadtrand 55, 22047 Hamburg","coordinates":[10.09821,53.59189,0],"engineType":"CE","exterior":"GOOD","fuel":60,"interior":"UNACCEPTABLE","name":"HH-GO8689","vin":"WME4513341K725970"},{"address":"Schiffbeker Weg 125, 22119 Hamburg","coordinates":[10.10991,53.5509,0],"engineType":"CE","exterior":"GOOD","fuel":100,"interior":"GOOD","name":"HH-GO8638","vin":"WME4513341K724240"},{"address":"Grosse Elbstraße 45, 22767 Hamburg","coordinates":[9.94757,53.54426,0],"engineType":"CE","exterior":"GOOD","fuel":84,"interior":"GOOD","name":"HH-GO8670","vin":"WME4513341K725091"},{"address":"Ring 2, 22043 Hamburg","coordinates":[10.07846,53.56376,0],"engineType":"CE","exterior":"GOOD","fuel":33,"interior":"UNACCEPTABLE","name":"HH-GO8652","vin":"WME4513341K724675"},{"address":"Meyermannweg 14, 22529 Hamburg","coordinates":[9.9566,53.59706,0],"engineType":"CE","exterior":"UNACCEPTABLE","fuel":100,"interior":"GOOD","name":"HH-GO8642","vin":"WME4513341K724426"},{"address":"Wasmannstraße 37, 22307 Hamburg","coordinates":[10.03832,53.59574,0],"engineType":"CE","exterior":"GOOD","fuel":57,"interior":"GOOD","name":"HH-GO8665","vin":"WME4513341K725023"},{"address":"Eissendorfer Pferdeweg 6, 21075 Hamburg","coordinates":[9.94597,53.47002,0],"engineType":"CE","exterior":"GOOD","fuel":54,"interior":"GOOD","name":"HH-GO8667","vin":"WME4513341K725044"},{"address":"Bei den Sankt Pauli-Landungsbrücken 5 - 10, 20359 Hamburg (Umkreis 100m)","coordinates":[9.96752,53.54586,0],"engineType":"CE","exterior":"GOOD","fuel":100,"interior":"GOOD","name":"HH-GO8707","vin":"WME4513341K727082"},{"address":"Parallelstraße, 21109 Hamburg","coordinates":[10.00987,53.50424,0],"engineType":"CE","exterior":"UNACCEPTABLE","fuel":54,"interior":"UNACCEPTABLE","name":"HH-GO8660","vin":"WME4513341K724822"},{"address":"Haynstraße 11, 20249 Hamburg","coordinates":[9.98461,53.586,0],"engineType":"CE","exterior":"GOOD","fuel":90,"interior":"GOOD","name":"HH-GO8679","vin":"WME4513341K725377"},{"address":"Lincolnstraße 16, 20359 Hamburg","coordinates":[9.9573,53.54866,0],"engineType":"CE","exterior":"GOOD","fuel":60,"interior":"GOOD","name":"HH-GO8709","vin":"WME4513341K727194"},{"address":"Wentorfer Straße 45, 21029 Hamburg","coordinates":[10.22189,53.48768,0],"engineType":"CE","exterior":"GOOD","fuel":30,"interior":"GOOD","name":"HH-GO8649","vin":"WME4513341K724617"},{"address":"Noerstraße 10, 22605 Hamburg","coordinates":[9.8928,53.55829,0],"engineType":"CE","exterior":"GOOD","fuel":69,"interior":"GOOD","name":"HH-GO8687","vin":"WME4513341K725798"},{"address":"Quedlinburger Weg 115, 22455 Hamburg","coordinates":[9.94449,53.63749,0],"engineType":"CE","exterior":"GOOD","fuel":63,"interior":"GOOD","name":"HH-GO8692","vin":"WME4513341K726195"},{"address":"Isebekstraße 33, 22769 Hamburg","coordinates":[9.93801,53.56718,0],"engineType":"CE","exterior":"GOOD","fuel":96,"interior":"GOOD","name":"HH-GO8658","vin":"WME4513341K724777"},{"address":"Hallerstraße 1, 20146 Hamburg","coordinates":[9.97939,53.57254,0],"engineType":"CE","exterior":"UNACCEPTABLE","fuel":75,"interior":"GOOD","name":"HH-GO8640","vin":"WME4513341K724355"},{"address":"Bebelallee 10 - 15, 22299 Hamburg (Umkreis 100m)","coordinates":[9.9945,53.59728,0],"engineType":"CE","exterior":"GOOD","fuel":75,"interior":"GOOD","name":"HH-GO8639","vin":"WME4513341K724308"},{"address":"Carsten-Rehder-Straße 57, 22767 Hamburg","coordinates":[9.94784,53.54469,0],"engineType":"CE","exterior":"GOOD","fuel":66,"interior":"GOOD","name":"HH-GO8653","vin":"WME4513341K724691"},{"address":"Probsteier Straße 27, 22049 Hamburg","coordinates":[10.06234,53.5795,0],"engineType":"CE","exterior":"UNACCEPTABLE","fuel":87,"interior":"UNACCEPTABLE","name":"HH-GO8696","vin":"WME4513341K726560"},{"address":"Herrengraben 56, 20459 Hamburg","coordinates":[9.98203,53.54673,0],"engineType":"CE","exterior":"GOOD","fuel":66,"interior":"GOOD","name":"HH-GO8703","vin":"WME4513341K727022"},{"address":"Silcherstraße 4, 22761 Hamburg","coordinates":[9.90246,53.56515,0],"engineType":"CE","exterior":"GOOD","fuel":75,"interior":"GOOD","name":"HH-GO8674","vin":"WME4513341K725196"},{"address":"Randstraße 1, 22525 Hamburg","coordinates":[9.92951,53.58506,0],"engineType":"CE","exterior":"GOOD","fuel":93,"interior":"GOOD","name":"HH-GO8681","vin":"WME4513341K725538"}]}